b'A,0322.5553,N,07631.9603,W,0.00,160.74,060821,,,A*7C\r\n'
b'$GPGGA,210438.000,0322.5553,N,07631.9603,W,1,06,1.9,988.0,M,8.9,M,,0000*7E\r\n'
b'$GPGSA,A,3,24,29,18,15,32,23,,,,,,,3.6,1.9,3.0*3C\r\n'
b'$GPRMC,210438.000,A,0322.5553,N,07631.9603,W,0.00,160.74,060821,,,A*73\r\n'
b'$GPGGA,210439.000,0322.5553,N,07631.9603,W,1,06,1.9,988.0,M,8.9,M,,0000*7F\r\n'
b'$GPGSA,A,3,24,29,18,15,32,23,,,,,,,3.6,1.9,3.0*3C\r\n'
b'$GPRMC,210439.000,A,0322.5553,N,07631.9603,W,0.00,160.74,060821,,,A*72\r\n'
b'$GPGGA,210440.000,0322.5553,N,07631.9603,W,1,06,1.9,988.1,M,8.9,M,,0000*70\r\n'
b'$GPGSA,A,3,24,29,18,15,32,23,,,,,,,3.6,1.9,3.0*3C\r\n'
b'$GPRMC,210440.000,A,0322.5553,N,07631.9603,W,0.00,160.74,060821,,,A*7C\r\n'
b'$GPGGA,210441.000,0322.5553,N,07631.9603,W,1,06,1.9,988.1,M,8.9,M,,0000*71\r\n'
b'$GPGSA,A,3,24,29,18,15,32,23,,,,,,,3.6,1.9,3.0*3C\r\n'
b'$GPGSV,3,1,12,24,62,099,45,29,54,227,45,18,35,343,40,15,29,016,44*70\r\n'
b'$GPGSV,3,2,12,32,18,239,32,23,17,326,19,12,16,158,10,13,05,031,21*7D\r\n'
b'$GPGSV,3,3,12,25,17,191,,02,15,134,,05,15,056,,11,08,131,*7B\r\n'
b'$GPRMC,210441.000,A,0322.5553,N,07631.9603,W,0.00,160.74,060821,,,A*7D\r\n'
b'$GPGGA,210442.000,0322.5553,N,07631.9603,W,1,06,1.9,988.2,M,8.9,M,,0000*71\r\n'
b'$GPGSA,A,3,24,29,18,15,32,23,,,,,,,3.6,1.9,3.0*3C\r\n'
b'$GPRMC,210442.000,A,0322.5553,N,07631.9603,W,0.00,160.74,060821,,,A*7E\r\n'
b'$GPGGA,210443.000,0322.5553,N,07631.9603,W,1,06,1.9,988.2,M,8.9,M,,0000*70\r\n'
b'$GPGSA,A,3,24,29,18,15,32,23,,,,,,,3.6,1.9,3.0*3C\r\n'
b'$GPRMC,210443.000,A,0322.5553,N,07631.9603,W,0.00,160.74,060821,,,A*7F\r\n'
b'$GPGGA,210444.000,0322.5554,N,07631.9603,W,1,06,1.9,988.3,M,8.9,M,,0000*71\r\n'
b'$GPGSA,A,3,24,29,18,15,32,23,,,,,,,3.6,1.9,3.0*3C\r\n'
b'$GPRMC,210444.000,A,0322.5554,N,07631.9603,W,0.00,160.74,060821,,,A*7F\r\n'
b'$GPGGA,210445.000,0322.5554,N,07631.9603,W,1,06,1.9,988.3,M,8.9,M,,0000*70\r\n'
b'$GPGSA,A,3,24,29,18,15,32,23,,,,,,,3.6,1.9,3.0*3C\r\n'
b'$GPRMC,210445.000,A,0322.5554,N,07631.9603,W,0.00,160.74,060821,,,A*7E\r\n'
b'$GPGGA,210446.000,0322.5554,N,07631.9603,W,1,06,1.9,988.4,M,8.9,M,,0000*74\r\n'
b'$GPGSA,A,3,24,29,18,15,32,23,,,,,,,3.6,1.9,3.0*3C\r\n'
b'$GPGSV,3,1,12,24,62,099,45,29,54,227,45,18,35,343,40,15,29,016,44*70\r\n'
b'$GPGSV,3,2,12,32,18,239,31,23,17,326,17,12,16,158,14,13,05,031,20*75\r\n'
b'$GPGSV,3,3,12,25,17,191,,02,15,134,,05,15,056,,11,08,131,*7B\r\n'
b'$GPRMC,210446.000,A,0322.5554,N,07631.9603,W,0.00,160.74,060821,,,A*7D\r\n'
b'$GPGGA,210447.000,0322.5554,N,07631.9604,W,1,06,1.9,988.4,M,8.9,M,,0000*72\r\n'
b'$GPGSA,A,3,24,29,18,15,32,23,,,,,,,3.6,1.9,3.0*3C\r\n'
b'$GPRMC,210447.000,A,0322.5554,N,07631.9604,W,0.00,160.74,060821,,,A*7B\r\n'
b'$GPGGA,210448.000,0322.5554,N,07631.9604,W,1,06,1.9,988.4,M,8.9,M,,0000*7D\r\n'
b'$GPGSA,A,3,24,29,18,15,32,23,,,,,,,3.6,1.9,3.0*3C\r\n'
b'$GPRMC,210448.000,A,0322.5554,N,07631.9604,W,0.00,160.74,060821,,,A*74\r\n'
b'$GPGGA,210449.000,0322.5554,N,07631.9604,W,1,06,1.9,988.4,M,8.9,M,,0000*7C\r\n'
b'$GPGSA,A,3,24,29,18,15,32,23,,,,,,,3.6,1.9,3.0*3C\r\n'
b'$GPRMC,210449.000,A,0322.5554,N,07631.9604,W,0.00,160.74,060821,,,A*75\r\n'
b'$GPGGA,210450.000,0322.5554,N,07631.9604,W,1,06,1.9,988.4,M,8.9,M,,0000*74\r\n'
b'$GPGSA,A,3,24,29,18,15,32,23,,,,,,,3.6,1.9,3.0*3C\r\n'
b'$GPRMC,210450.000,A,0322.5554,N,07631.9604,W,0.00,160.74,060821,,,A*7D\r\n'
b'$GPGGA,210451.000,0322.5554,N,07631.9604,W,1,06,1.9,988.4,M,8.9,M,,0000*75\r\n'
b'$GPGSA,A,3,24,29,18,15,32,23,,,,,,,3.6,1.9,3.0*3C\r\n'
b'$GPGSV,3,1,12,24,62,099,39,29,54,227,40,18,35,343,34,15,29,016,39*77\r\n'
b'$GPGSV,3,2,12,32,18,239,24,23,17,326,15,12,16,158,14,25,17,191,*7C\r\n'
b'$GPGSV,3,3,12,02,15,134,,05,15,056,,11,08,131,,13,05,031,*76\r\n'
b'$GPRMC,210451.000,A,0322.5554,N,07631.9604,W,0.00,160.74,060821,,,A*7C\r\n'
b'$GPGGA,210452.000,0322.5554,N,07631.9604,W,1,06,1.9,988.5,M,8.9,M,,0000*77\r\n'
b'$GPGSA,A,3,24,29,18,15,32,23,,,,,,,3.6,1.9,3.0*3C\r\n'
b'$GPRMC,210452.000,A,0322.5554,N,07631.9604,W,0.00,160.74,060821,,,A*7F\r\n'
b'$GPGGA,210453.000,0322.5554,N,07631.9604,W,1,06,1.9,988.5,M,8.9,M,,0000*76\r\n'
b'$GPGSA,A,3,24,29,18,15,32,23,,,,,,,3.6,1.9,3.0*3C\r\n'
b'$GPRMC,210453.000,A,0322.5554,N,07631.9604,W,0.00,160.74,060821,,,A*7E\r\n'
b'$GPGGA,210454.000,0322.5554,N,07631.9604,W,1,06,1.9,988.5,M,8.9,M,,0000*71\r\n'
b'$GPGSA,A,3,24,29,18,15,32,23,,,,,,,3.6,1.9,3.0*3C\r\n'
b'$GPRMC,210454.000,A,0322.5554,N,07631.9604,W,0.00,160.74,060821,,,A*79\r\n'
b'$GPGGA,210455.000,0322.5554,N,07631.9604,W,1,06,1.9,988.5,M,8.9,M,,0000*70\r\n'
b'$GPGSA,A,3,24,29,18,15,32,23,,,,,,,3.6,1.9,3.0*3C\r\n'
b'$GPRMC,210455.000,A,0322.5554,N,07631.9604,W,0.00,160.74,060821,,,A*78\r\n'
b'$GPGGA,210456.000,0322.5554,N,07631.9604,W,1,06,1.9,988.5,M,8.9,M,,0000*73\r\n'
b'$GPGSA,A,3,24,29,18,15,32,23,,,,,,,3.6,1.9,3.0*3C\r\n'
b'$GPGSV,3,1,12,24,62,099,41,29,54,227,42,18,35,343,39,15,29,016,41*78\r\n'
b'$GPGSV,3,2,12,32,18,239,22,23,17,326,17,12,16,158,15,25,17,191,*79\r\n'
b'$GPGSV,3,3,12,02,15,134,,05,15,056,,11,08,131,,13,05,031,*76\r\n'
b'$GPRMC,210456.000,A,0322.5554,N,07631.9604,W,0.00,160.74,060821,,,A*7B\r\n'
b'$GPGGA,210457.000,0322.5554,N,07631.9604,W,1,06,1.9,988.5,M,8.9,M,,0000*72\r\n'
b'$GPGSA,A,3,24,29,18,15,32,23,,,,,,,3.6,1.9,3.0*3C\r\n'
b'$GPRMC,210457.000,A,0322.5554,N,07631.9604,W,0.00,160.74,060821,,,A*7A\r\n'
b'$GPGGA,210458.000,0322.5554,N,07631.9604,W,1,06,1.9,988.5,M,8.9,M,,0000*7D\r\n'
b'$GPGSA,A,3,24,29,18,15,32,23,,,,,,,3.6,1.9,3.0*3C\r\n'
b'$GPRMC,210458.000,A,0322.5554,N,07631.9604,W,0.00,160.74,060821,,,A*75\r\n'
b'$GPGGA,210459.000,0322.5554,N,07631.9604,W,1,06,1.9,988.5,M,8.9,M,,0000*7C\r\n'
b'$GPGSA,A,3,24,29,18,15,32,23,,,,,,,3.6,1.9,3.0*3C\r\n'
b'$GPRMC,210459.000,A,0322.5554,N,07631.9604,W,0.00,160.74,060821,,,A*74\r\n'
b'$GPGGA,210500.000,0322.5554,N,07631.9604,W,1,06,1.9,988.5,M,8.9,M,,0000*71\r\n'
b'$GPGSA,A,3,24,29,18,15,32,23,,,,,,,3.6,1.9,3.0*3C\r\n'
b'$GPRMC,210500.000,A,0322.5554,N,07631.9604,W,0.00,160.74,060821,,,A*79\r\n'
b'$GPGGA,210501.000,0322.5554,N,07631.9604,W,1,06,1.9,988.5,M,8.9,M,,0000*70\r\n'
b'$GPGSA,A,3,24,29,18,15,32,23,,,,,,,3.6,1.9,3.0*3C\r\n'
b'$GPGSV,3,1,12,24,62,099,42,29,54,227,42,18,35,343,39,15,29,016,43*79\r\n'
b'$GPGSV,3,2,12,32,18,239,16,23,17,326,21,05,15,056,27,12,16,158,18*79\r\n'
b'$GPGSV,3,3,12,25,17,191,,02,15,134,,11,08,131,,13,05,031,*7C\r\n'
b'$GPRMC,210501.000,A,0322.5554,N,07631.9604,W,0.00,160.74,060821,,,A*78\r\n'
b'$GPGGA,210502.000,0322.5554,N,07631.9604,W,1,06,1.9,988.5,M,8.9,M,,0000*73\r\n'
b'$GPGSA,A,3,24,29,18,15,32,23,,,,,,,3.6,1.9,3.0*3C\r\n'
b'$GPRMC,210502.000,A,0322.5554,N,07631.9604,W,0.00,160.74,060821,,,A*7B\r\n'
b'$GPGGA,210503.000,0322.5554,N,07631.9604,W,1,06,1.9,988.5,M,8.9,M,,0000*72\r\n'
b'$GPGSA,A,3,24,29,18,15,32,23,,,,,,,3.6,1.9,3.0*3C\r\n'
b'$GPRMC,210503.000,A,0322.5554,N,07631.9604,W,0.00,160.74,060821,,,A*7A\r\n'
b'$GPGGA,210504.000,0322.5554,N,07631.9604,W,1,06,1.9,988.5,M,8.9,M,,0000*75\r\n'
b'$GPGSA,A,3,24,29,18,15,32,23,,,,,,,3.6,1.9,3.0*3C\r\n'
b'$GPRMC,210504.000,A,0322.5554,N,07631.9604,W,0.00,160.74,060821,,,A*7D\r\n'
b'$GPGGA,210505.000,0322.5554,N,07631.9604,W,1,06,1.9,988.5,M,8.9,M,,0000*74\r\n'
b'$GPGSA,A,3,24,29,18,15,32,23,,,,,,,3.6,1.9,3.0*3C\r\n'
b'$GPRMC,210505.000,A,0322.5554,N,07631.9604,W,0.00,160.74,060821,,,A*7C\r\n'
b'$GPGGA,210506.000,0322.5554,N,07631.9604,W,1,06,1.9,988.5,M,8.9,M,,0000*77\r\n'
b'$GPGSA,A,3,24,29,18,15,32,23,,,,,,,3.6,1.9,3.0*3C\r\n'
b'$GPGSV,3,1,12,24,62,099,43,29,54,227,43,18,35,343,41,15,29,016,44*71\r\n'
b'$GPGSV,3,2,12,32,18,239,13,23,17,326,25,05,15,056,26,12,16,158,19*78\r\n'
b'$GPGSV,3,3,12,25,17,191,,02,15,134,,11,08,131,,13,05,031,*7C\r\n'
b'$GPRMC,210506.000,A,0322.5554,N,07631.9604,W,0.00,160.74,060821,,,A*7F\r\n'
b'$GPGGA,210507.000,0322.5554,N,07631.9604,W,1,06,1.9,988.5,M,8.9,M,,0000*76\r\n'
b'$GPGSA,A,3,24,29,18,15,32,23,,,,,,,3.6,1.9,3.0*3C\r\n'
b'$GPRMC,210507.000,A,0322.5554,N,07631.9604,W,0.00,160.74,060821,,,A*7E\r\n'
b'$GPGGA,210508.000,0322.5554,N,07631.9604,W,1,06,1.9,988.5,M,8.9,M,,0000*79\r\n'
b'$GPGSA,A,3,24,29,18,15,32,23,,,,,,,3.6,1.9,3.0*3C\r\n'
b'$GPRMC,210508.000,A,0322.5554,N,07631.9604,W,0.00,160.74,060821,,,A*71\r\n'
b'$GPGGA,210509.000,0322.5554,N,07631.9604,W,1,06,1.9,988.5,M,8.9,M,,0000*78\r\n'
b'$GPGSA,A,3,24,29,18,15,32,23,,,,,,,3.6,1.9,3.0*3C\r\n'
b'$GPRMC,210509.000,A,0322.5554,N,07631.9604,W,0.00,160.74,060821,,,A*70\r\n'
b'$GPGGA,210510.000,0322.5554,N,07631.9604,W,1,06,1.9,988.5,M,8.9,M,,0000*70\r\n'
b'$GPGSA,A,3,24,29,18,15,32,23,,,,,,,3.6,1.9,3.0*3C\r\n'
b'$GPRMC,210510.000,A,0322.5554,N,07631.9604,W,0.00,160.74,060821,,,A*78\r\n'
b'$GPGGA,210511.000,0322.5554,N,07631.9604,W,1,06,1.9,988.5,M,8.9,M,,0000*71\r\n'
b'$GPGSA,A,3,24,29,18,15,32,23,,,,,,,3.6,1.9,3.0*3C\r\n'
b'$GPGSV,3,1,12,24,62,099,44,29,54,227,44,18,35,343,42,15,29,016,45*73\r\n'
b'$GPGSV,3,2,12,32,18,239,14,23,17,326,25,12,16,158,20,25,17,191,*7B\r\n'
b'$GPGSV,3,3,12,02,15,134,,05,15,056,,11,08,131,,13,05,031,*76\r\n'
b'$GPRMC,210511.000,A,0322.5554,N,07631.9604,W,0.00,160.74,060821,,,A*79\r\n'
b'$GPGGA,210512.000,0322.5554,N,07631.9604,W,1,06,1.9,988.5,M,8.9,M,,0000*72\r\n'
b'$GPGSA,A,3,24,29,18,15,32,23,,,,,,,3.6,1.9,3.0*3C\r\n'
b'$GPRMC,210512.000,A,0322.5554,N,07631.9604,W,0.00,160.74,060821,,,A*7A\r\n'
b'$GPGGA,210513.000,0322.5554,N,07631.9604,W,1,06,1.9,988.6,M,8.9,M,,0000*70\r\n'
b'$GPGSA,A,3,24,29,18,15,32,23,,,,,,,3.6,1.9,3.0*3C\r\n'
b'$GPRMC,210513.000,A,0322.5554,N,07631.9604,W,0.00,160.74,060821,,,A*7B\r\n'
b'$GPGGA,210514.000,0322.5554,N,07631.9604,W,1,06,1.9,988.6,M,8.9,M,,0000*77\r\n'
b'$GPGSA,A,3,24,29,18,15,32,23,,,,,,,3.6,1.9,3.0*3C\r\n'
b'$GPRMC,210514.000,A,0322.5554,N,07631.9604,W,0.00,160.74,060821,,,A*7C\r\n'
b'$GPGGA,210515.000,0322.5554,N,07631.9604,W,1,06,1.9,988.6,M,8.9,M,,0000*76\r\n'
b'$GPGSA,A,3,24,29,18,15,32,23,,,,,,,3.6,1.9,3.0*3C\r\n'
b'$GPRMC,210515.000,A,0322.5554,N,07631.9604,W,0.00,160.74,060821,,,A*7D\r\n'
b'$GPGGA,210516.000,0322.5554,N,07631.9604,W,1,06,1.9,988.6,M,8.9,M,,0000*75\r\n'
b'$GPGSA,A,3,24,29,18,15,32,23,,,,,,,3.6,1.9,3.0*3C\r\n'
b'$GPGSV,3,1,12,24,62,099,44,29,54,227,44,18,35,343,43,15,29,016,45*72\r\n'
b'$GPGSV,3,2,12,32,18,239,22,23,17,326,25,12,16,158,24,25,17,191,*7A\r\n'
b'$GPGSV,3,3,12,02,15,134,,05,15,056,,11,08,131,,13,05,031,*76\r\n'
b'$GPRMC,210516.000,A,0322.5554,N,07631.9604,W,0.00,160.74,060821,,,A*7E\r\n'
b'$GPGGA,210517.000,0322.5554,N,07631.9604,W,1,06,1.9,988.6,M,8.9,M,,0000*74\r\n'
b'$GPGSA,A,3,24,29,18,15,32,23,,,,,,,3.6,1.9,3.0*3C\r\n'
b'$GPRMC,210517.000,A,0322.5554,N,07631.9604,W,0.00,160.74,060821,,,A*7F\r\n'
b'$GPGGA,210518.000,0322.5554,N,07631.9604,W,1,06,1.9,988.6,M,8.9,M,,0000*7B\r\n'
b'$GPGSA,A,3,24,29,18,15,32,23,,,,,,,3.6,1.9,3.0*3C\r\n'
b'$GPRMC,210518.000,A,0322.5554,N,07631.9604,W,0.00,160.74,060821,,,A*70\r\n'
b'$GPGGA,210519.000,0322.5554,N,07631.9604,W,1,06,1.9,988.6,M,8.9,M,,0000*7A\r\n'
b'$GPGSA,A,3,24,29,18,15,32,23,,,,,,,3.6,1.9,3.1*3D\r\n'
b'$GPRMC,210519.000,A,0322.5554,N,07631.9604,W,0.00,160.74,060821,,,A*71\r\n'
b'$GPGGA,210520.000,0322.5554,N,07631.9604,W,1,06,1.9,988.6,M,8.9,M,,0000*70\r\n'
b'$GPGSA,A,3,24,29,18,15,32,23,,,,,,,3.6,1.9,3.1*3D\r\n'
b'$GPRMC,210520.000,A,0322.5554,N,07631.9604,W,0.00,160.74,060821,,,A*7B\r\n'
b'$GPGGA,210521.000,0322.5555,N,07631.9604,W,1,06,1.9,988.7,M,8.9,M,,0000*71\r\n'
b'$GPGSA,A,3,24,29,18,15,32,23,,,,,,,3.6,1.9,3.1*3D\r\n'
b'$GPGSV,3,1,12,24,62,099,44,29,54,227,44,18,35,343,43,15,29,016,45*72\r\n'
b'$GPGSV,3,2,12,32,18,239,22,23,17,326,27,12,16,158,25,25,17,191,*79\r\n'
b'$GPGSV,3,3,12,02,15,134,,05,15,056,,11,08,131,,13,05,031,*76\r\n'
b'$GPRMC,210521.000,A,0322.5555,N,07631.9604,W,0.00,160.74,060821,,,A*7B\r\n'
b'$GPGGA,210522.000,0322.5555,N,07631.9604,W,1,06,1.9,988.7,M,8.9,M,,0000*72\r\n'
b'$GPGSA,A,3,24,29,18,15,32,23,,,,,,,3.6,1.9,3.1*3D\r\n'
b'$GPRMC,210522.000,A,0322.5555,N,07631.9604,W,0.00,160.74,060821,,,A*78\r\n'
b'$GPGGA,210523.000,0322.5555,N,07631.9604,W,1,06,1.9,988.7,M,8.9,M,,0000*73\r\n'
b'$GPGSA,A,3,24,29,18,15,32,23,,,,,,,3.6,1.9,3.1*3D\r\n'
b'$GPRMC,210523.000,A,0322.5555,N,07631.9604,W,0.00,160.74,060821,,,A*79\r\n'
b'$GPGGA,210524.000,0322.5555,N,07631.9604,W,1,06,1.9,988.7,M,8.9,M,,0000*74\r\n'
b'$GPGSA,A,3,24,29,18,15,32,23,,,,,,,3.6,1.9,3.1*3D\r\n'
b'$GPRMC,210524.000,A,0322.5555,N,07631.9604,W,0.00,160.74,060821,,,A*7E\r\n'
b'$GPGGA,210525.000,0322.5555,N,07631.9604,W,1,06,1.9,988.7,M,8.9,M,,0000*75\r\n'
b'$GPGSA,A,3,24,29,18,15,32,23,,,,,,,3.6,1.9,3.1*3D\r\n'
b'$GPRMC,210525.000,A,0322.5555,N,07631.9604,W,0.00,160.74,060821,,,A*7F\r\n'
b'$GPGGA,210526.000,0322.5555,N,07631.9604,W,1,06,1.9,988.7,M,8.9,M,,0000*76\r\n'
b'$GPGSA,A,3,24,29,18,15,32,23,,,,,,,3.6,1.9,3.1*3D\r\n'
b'$GPGSV,3,1,12,24,62,099,44,29,54,227,44,18,35,343,43,15,29,016,45*72\r\n'
b'$GPGSV,3,2,12,32,18,239,23,23,17,326,28,12,16,158,26,25,17,191,*74\r\n'
b'$GPGSV,3,3,12,02,15,134,,05,15,056,,11,08,131,,13,05,031,*76\r\n'
b'$GPRMC,210526.000,A,0322.5555,N,07631.9604,W,0.00,160.74,060821,,,A*7C\r\n'
b'$GPGGA,210527.000,0322.5555,N,07631.9604,W,1,06,1.9,988.8,M,8.9,M,,0000*78\r\n'
b'$GPGSA,A,3,24,29,18,15,32,23,,,,,,,3.6,1.9,3.1*3D\r\n'
b'$GPRMC,210527.000,A,0322.5555,N,07631.9604,W,0.00,160.74,060821,,,A*7D\r\n'
b'$GPGGA,210528.000,0322.5555,N,07631.9604,W,1,06,1.9,988.8,M,8.9,M,,0000*77\r\n'
b'$GPGSA,A,3,24,29,18,15,32,23,,,,,,,3.6,1.9,3.1*3D\r\n'
b'$GPRMC,210528.000,A,0322.5555,N,07631.9604,W,0.00,160.74,060821,,,A*72\r\n'
b'$GPGGA,210529.000,0322.5559,N,07631.9606,W,1,06,1.9,991.1,M,8.9,M,,0000*79\r\n'
b'$GPGSA,A,3,24,29,18,15,32,23,,,,,,,3.6,1.9,3.1*3D\r\n'
b'$GPRMC,210529.000,A,0322.5559,N,07631.9606,W,0.17,160.74,060821,,,A*7B\r\n'
b'$GPGGA,210530.000,0322.5559,N,07631.9606,W,1,06,1.9,991.2,M,8.9,M,,0000*72\r\n'
b'$GPGSA,A,3,24,29,18,15,32,23,,,,,,,3.6,1.9,3.1*3D\r\n'
b'$GPRMC,210530.000,A,0322.5559,N,07631.9606,W,0.01,160.74,060821,,,A*74\r\n'
b'$GPGGA,210531.000,0322.5559,N,07631.9606,W,1,06,1.9,991.2,M,8.9,M,,0000*73\r\n'
b'$GPGSA,A,3,24,29,18,15,32,23,,,,,,,3.6,1.9,3.1*3D\r\n'
b'$GPGSV,3,1,12,24,62,099,44,29,54,227,44,18,35,343,43,15,29,016,45*72\r\n'
b'$GPGSV,3,2,12,32,18,239,24,23,17,326,29,12,16,158,26,25,17,191,*72\r\n'
b'$GPGSV,3,3,12,02,15,134,,05,15,056,,11,08,131,,13,05,031,*76\r\n'
b'$GPRMC,210531.000,A,0322.5559,N,07631.9606,W,0.00,160.74,060821,,,A*74\r\n'
b'$GPGGA,210532.000,0322.5559,N,07631.9606,W,1,06,1.9,991.2,M,8.9,M,,0000*70\r\n'
b'$GPGSA,A,3,24,29,18,15,32,23,,,,,,,3.6,1.9,3.1*3D\r\n'
b'$GPRMC,210532.000,A,0322.5559,N,07631.9606,W,0.00,160.74,060821,,,A*77\r\n'
b'$GPGGA,210533.000,0322.5559,N,07631.9606,W,1,06,1.9,991.2,M,8.9,M,,0000*71\r\n'
b'$GPGSA,A,3,24,29,18,15,32,23,,,,,,,3.6,1.9,3.1*3D\r\n'
b'$GPRMC,210533.000,A,0322.5559,N,07631.9606,W,0.00,160.74,060821,,,A*76\r\n'
b'$GPGGA,210534.000,0322.5559,N,07631.9606,W,1,06,1.9,991.2,M,8.9,M,,0000*76\r\n'
b'$GPGSA,A,3,24,29,18,15,32,23,,,,,,,3.6,1.9,3.1*3D\r\n'
b'$GPRMC,210534.000,A,0322.5559,N,07631.9606,W,0.00,160.74,060821,,,A*71\r\n'
b'$GPGGA,210535.000,0322.5559,N,07631.9606,W,1,06,1.9,991.3,M,8.9,M,,0000*76\r\n'
b'$GPGSA,A,3,24,29,18,15,32,23,,,,,,,3.6,1.9,3.1*3D\r\n'
b'$GPRMC,210535.000,A,0322.5559,N,07631.9606,W,0.00,160.74,060821,,,A*70\r\n'
b'$GPGGA,210536.000,0322.5559,N,07631.9606,W,1,06,1.9,991.3,M,8.9,M,,0000*75\r\n'
b'$GPGSA,A,3,24,29,18,15,32,23,,,,,,,3.6,1.9,3.1*3D\r\n'
b'$GPGSV,3,1,12,24,62,099,44,29,54,227,43,18,35,343,43,15,29,016,45*75\r\n'
b'$GPGSV,3,2,12,32,18,239,25,23,17,326,30,12,16,158,26,25,17,191,*7B\r\n'
b'$GPGSV,3,3,12,02,15,134,,05,15,056,,11,08,131,,13,05,031,*76\r\n'
b'$GPRMC,210536.000,A,0322.5559,N,07631.9606,W,0.00,160.74,060821,,,A*73\r\n'
b'$GPGGA,210537.000,0322.5559,N,07631.9606,W,1,06,1.9,991.3,M,8.9,M,,0000*74\r\n'
b'$GPGSA,A,3,24,29,18,15,32,23,,,,,,,3.6,1.9,3.1*3D\r\n'
b'$GPRMC,210537.000,A,0322.5559,N,07631.9606,W,0.00,160.74,060821,,,A*72\r\n'
b'$GPGGA,210538.000,0322.5559,N,07631.9606,W,1,06,1.9,991.3,M,8.9,M,,0000*7B\r\n'
b'$GPGSA,A,3,24,29,18,15,32,23,,,,,,,3.6,1.9,3.1*3D\r\n'
b'$GPRMC,210538.000,A,0322.5559,N,07631.9606,W,0.00,160.74,060821,,,A*7D\r\n'
b'$GPGGA,210539.000,0322.5559,N,07631.9606,W,1,06,1.9,991.4,M,8.9,M,,0000*7D\r\n'
b'$GPGSA,A,3,24,29,18,15,32,23,,,,,,,3.6,1.9,3.1*3D\r\n'
b'$GPRMC,210539.000,A,0322.5559,N,07631.9606,W,0.00,160.74,060821,,,A*7C\r\n'
b'$GPGGA,210540.000,0322.5559,N,07631.9606,W,1,06,1.9,991.4,M,8.9,M,,0000*73\r\n'
b'$GPGSA,A,3,24,29,18,15,32,23,,,,,,,3.6,1.9,3.1*3D\r\n'
b'$GPRMC,210540.000,A,0322.5559,N,07631.9606,W,0.00,160.74,060821,,,A*72\r\n'
b'$GPGGA,210541.000,0322.5559,N,07631.9606,W,1,06,1.9,991.4,M,8.9,M,,0000*72\r\n'
b'$GPGSA,A,3,24,29,18,15,32,23,,,,,,,3.6,1.9,3.1*3D\r\n'
b'$GPGSV,3,1,12,24,62,099,45,29,54,227,43,18,35,343,43,15,29,016,45*74\r\n'
b'$GPGSV,3,2,12,32,18,239,26,23,17,326,31,12,16,158,25,25,17,191,*7A\r\n'
b'$GPGSV,3,3,12,02,15,134,,05,15,056,,11,08,131,,13,05,031,*76\r\n'
b'$GPRMC,210541.000,A,0322.5559,N,07631.9606,W,0.00,160.74,060821,,,A*73\r\n'
b'$GPGGA,210542.000,0322.5563,N,07631.9607,W,1,06,1.9,993.5,M,8.9,M,,0000*7A\r\n'
b'$GPGSA,A,3,24,29,18,15,32,23,,,,,,,3.6,1.9,3.1*3D\r\n'
b'$GPRMC,210542.000,A,0322.5563,N,07631.9607,W,0.15,160.74,060821,,,A*7C\r\n'
b'$GPGGA,210543.000,0322.5563,N,07631.9607,W,1,06,1.9,993.5,M,8.9,M,,0000*7B\r\n'
b'$GPGSA,A,3,24,29,18,15,32,23,,,,,,,3.6,1.9,3.1*3D\r\n'
b'$GPRMC,210543.000,A,0322.5563,N,07631.9607,W,0.01,160.74,060821,,,A*78\r\n'
b'$GPGGA,210544.000,0322.5563,N,07631.9607,W,1,06,1.9,993.5,M,8.9,M,,0000*7C\r\n'
b'$GPGSA,A,3,24,29,18,15,32,23,,,,,,,3.6,1.9,3.1*3D\r\n'
b'$GPRMC,210544.000,A,0322.5563,N,07631.9607,W,0.00,160.74,060821,,,A*7E\r\n'
b'$GPGGA,210545.000,0322.5563,N,07631.9607,W,1,06,1.9,993.5,M,8.9,M,,0000*7D\r\n'
b'$GPGSA,A,3,24,29,18,15,32,23,,,,,,,3.6,1.9,3.1*3D\r\n'
b'$GPRMC,210545.000,A,0322.5563,N,07631.9607,W,0.00,160.74,060821,,,A*7F\r\n'
b'$GPGGA,210546.000,0322.5563,N,07631.9607,W,1,06,1.9,993.5,M,8.9,M,,0000*7E\r\n'
b'$GPGSA,A,3,24,29,18,15,32,23,,,,,,,3.6,1.9,3.1*3D\r\n'
b'$GPGSV,3,1,12,24,62,099,45,29,54,227,43,18,35,343,43,15,29,016,45*74\r\n'
b'$GPGSV,3,2,12,32,18,239,27,23,17,326,31,12,16,158,20,25,17,191,*7E\r\n'
b'$GPGSV,3,3,12,02,15,134,,05,15,056,,11,08,131,,13,05,031,*76\r\n'
b'$GPRMC,210546.000,A,0322.5563,N,07631.9607,W,0.00,160.74,060821,,,A*7C\r\n'
b'$GPGGA,210547.000,0322.5563,N,07631.9607,W,1,06,1.9,993.6,M,8.9,M,,0000*7C\r\n'
b'$GPGSA,A,3,24,29,18,15,32,23,,,,,,,3.6,1.9,3.1*3D\r\n'
b'$GPRMC,210547.000,A,0322.5563,N,07631.9607,W,0.00,160.74,060821,,,A*7D\r\n'
b'$GPGGA,210548.000,0322.5563,N,07631.9607,W,1,06,1.9,993.6,M,8.9,M,,0000*73\r\n'
b'$GPGSA,A,3,24,29,18,15,32,23,,,,,,,3.6,1.9,3.1*3D\r\n'
b'$GPRMC,210548.000,A,0322.5563,N,07631.9607,W,0.00,160.74,060821,,,A*72\r\n'
b'$GPGGA,210549.000,0322.5568,N,07631.9609,W,1,06,1.9,996.2,M,8.9,M,,0000*76\r\n'
b'$GPGSA,A,3,24,29,18,15,32,23,,,,,,,3.6,1.9,3.1*3D\r\n'
b'$GPRMC,210549.000,A,0322.5568,N,07631.9609,W,0.16,160.74,060821,,,A*71\r\n'
b'$GPGGA,210550.000,0322.5568,N,07631.9609,W,1,06,1.9,996.2,M,8.9,M,,0000*7E\r\n'
b'$GPGSA,A,3,24,29,18,15,32,23,,,,,,,3.6,1.9,3.1*3D\r\n'
b'$GPRMC,210550.000,A,0322.5568,N,07631.9609,W,0.01,160.74,060821,,,A*7F\r\n'
b'$GPGGA,210551.000,0322.5568,N,07631.9609,W,1,06,1.9,996.2,M,8.9,M,,0000*7F\r\n'
b'$GPGSA,A,3,24,29,18,15,32,23,,,,,,,3.6,1.9,3.1*3D\r\n'
b'$GPGSV,3,1,12,24,62,099,45,29,54,227,43,18,35,343,43,15,29,016,45*74\r\n'
b'$GPGSV,3,2,12,32,18,239,28,23,17,326,32,12,16,158,19,25,17,191,*78\r\n'
b'$GPGSV,3,3,12,02,15,134,,05,15,056,,11,08,131,,13,05,031,*76\r\n'
b'$GPRMC,210551.000,A,0322.5568,N,07631.9609,W,0.00,160.74,060821,,,A*7F\r\n'
b'$GPGGA,210552.000,0322.5568,N,07631.9609,W,1,06,1.9,996.2,M,8.9,M,,0000*7C\r\n'
b'$GPGSA,A,3,24,29,18,15,32,23,,,,,,,3.6,1.9,3.1*3D\r\n'
b'$GPRMC,210552.000,A,0322.5568,N,07631.9609,W,0.00,160.74,060821,,,A*7C\r\n'
b'$GPGGA,210553.000,0322.5568,N,07631.9609,W,1,06,1.9,996.2,M,8.9,M,,0000*7D\r\n'
b'$GPGSA,A,3,24,29,18,15,32,23,,,,,,,3.6,1.9,3.1*3D\r\n'
b'$GPRMC,210553.000,A,0322.5568,N,07631.9609,W,0.00,160.74,060821,,,A*7D\r\n'
b'$GPGGA,210554.000,0322.5568,N,07631.9609,W,1,06,1.9,996.3,M,8.9,M,,0000*7B\r\n'
b'$GPGSA,A,3,24,29,18,15,32,23,,,,,,,3.6,1.9,3.1*3D\r\n'
b'$GPRMC,210554.000,A,0322.5568,N,07631.9609,W,0.00,160.74,060821,,,A*7A\r\n'
b'$GPGGA,210555.000,0322.5568,N,07631.9609,W,1,06,1.9,996.3,M,8.9,M,,0000*7A\r\n'
b'$GPGSA,A,3,24,29,18,15,32,23,,,,,,,3.6,1.9,3.1*3D\r\n'
b'$GPRMC,210555.000,A,0322.5568,N,07631.9609,W,0.00,160.74,060821,,,A*7B\r\n'
b'$GPGGA,210556.000,0322.5568,N,07631.9609,W,1,06,1.9,996.3,M,8.9,M,,0000*79\r\n'
b'$GPGSA,A,3,24,29,18,15,32,23,,,,,,,3.6,1.9,3.1*3D\r\n'
b'$GPGSV,3,1,12,24,62,099,45,29,54,227,43,18,35,343,42,15,29,016,44*74\r\n'
b'$GPGSV,3,2,12,32,18,239,28,23,17,326,32,12,16,158,19,25,17,191,*78\r\n'
b'$GPGSV,3,3,12,02,15,134,,05,15,056,,11,08,131,,13,05,031,*76\r\n'
b'$GPRMC,210556.000,A,0322.5568,N,07631.9609,W,0.00,160.74,060821,,,A*78\r\n'
b'$GPGGA,210557.000,0322.5568,N,07631.9609,W,1,06,1.9,996.3,M,8.9,M,,0000*78\r\n'
b'$GPGSA,A,3,24,29,18,15,32,23,,,,,,,3.6,1.9,3.1*3D\r\n'
b'$GPRMC,210557.000,A,0322.5568,N,07631.9609,W,0.00,160.74,060821,,,A*79\r\n'
b'$GPGGA,210558.000,0322.5568,N,07631.9609,W,1,06,1.9,996.3,M,8.9,M,,0000*77\r\n'
b'$GPGSA,A,3,24,29,18,15,32,23,,,,,,,3.6,1.9,3.1*3D\r\n'
b'$GPRMC,210558.000,A,0322.5568,N,07631.9609,W,0.00,160.74,060821,,,A*76\r\n'
b'$GPGGA,210559.000,0322.5568,N,07631.9609,W,1,06,1.9,996.4,M,8.9,M,,0000*71\r\n'
b'$GPGSA,A,3,24,29,18,15,32,23,,,,,,,3.6,1.9,3.1*3D\r\n'
b'$GPRMC,210559.000,A,0322.5568,N,07631.9609,W,0.00,160.74,060821,,,A*77\r\n'
b'$GPGGA,210600.000,0322.5568,N,07631.9609,W,1,06,1.9,996.4,M,8.9,M,,0000*7E\r\n'
b'$GPGSA,A,3,24,29,18,15,32,23,,,,,,,3.6,1.9,3.1*3D\r\n'
b'$GPRMC,210600.000,A,0322.5568,N,07631.9609,W,0.00,160.74,060821,,,A*78\r\n'
b'$GPGGA,210601.000,0322.5569,N,07631.9609,W,1,06,1.9,996.4,M,8.9,M,,0000*7E\r\n'
b'$GPGSA,A,3,24,29,18,15,32,23,,,,,,,3.6,1.9,3.1*3D\r\n'
b'$GPGSV,3,1,12,24,62,099,45,29,54,227,43,18,35,343,42,15,29,016,44*74\r\n'
b'$GPGSV,3,2,12,32,18,239,29,23,17,326,32,12,16,158,19,25,17,191,*79\r\n'
b'$GPGSV,3,3,12,02,15,134,,05,15,056,,11,08,131,,13,05,031,*76\r\n'
b'$GPRMC,210601.000,A,0322.5569,N,07631.9609,W,0.00,160.74,060821,,,A*78\r\n'
b'$GPGGA,210602.000,0322.5569,N,07631.9609,W,1,06,1.9,996.5,M,8.9,M,,0000*7C\r\n'
b'$GPGSA,A,3,24,29,18,15,32,23,,,,,,,3.6,1.9,3.1*3D\r\n'
b'$GPRMC,210602.000,A,0322.5569,N,07631.9609,W,0.00,160.74,060821,,,A*7B\r\n'
b'$GPGGA,210603.000,0322.5569,N,07631.9609,W,1,06,1.9,996.5,M,8.9,M,,0000*7D\r\n'
b'$GPGSA,A,3,24,29,18,15,32,23,,,,,,,3.6,1.9,3.1*3D\r\n'
b'$GPRMC,210603.000,A,0322.5569,N,07631.9609,W,0.00,160.74,060821,,,A*7A\r\n'
b'$GPGGA,210604.000,0322.5569,N,07631.9609,W,1,06,1.9,996.5,M,8.9,M,,0000*7A\r\n'
b'$GPGSA,A,3,24,29,18,15,32,23,,,,,,,3.6,1.9,3.1*3D\r\n'
b'$GPRMC,210604.000,A,0322.5569,N,07631.9609,W,0.00,160.74,060821,,,A*7D\r\n'
b'$GPGGA,210605.000,0322.5569,N,07631.9609,W,1,06,1.9,996.5,M,8.9,M,,0000*7B\r\n'
b'$GPGSA,A,3,24,29,18,15,32,23,,,,,,,3.6,1.9,3.1*3D\r\n'
b'$GPRMC,210605.000,A,0322.5569,N,07631.9609,W,0.00,160.74,060821,,,A*7C\r\n'
b'$GPGGA,210606.000,0322.5569,N,07631.9609,W,1,06,1.9,996.6,M,8.9,M,,0000*7B\r\n'
b'$GPGSA,A,3,24,29,18,15,32,23,,,,,,,3.6,1.9,3.1*3D\r\n'
b'$GPGSV,3,1,12,24,62,099,45,29,54,227,43,18,35,343,41,15,29,016,44*77\r\n'
b'$GPGSV,3,2,12,32,18,239,29,23,17,326,32,12,16,158,20,25,17,191,*73\r\n'
b'$GPGSV,3,3,12,02,15,134,,05,15,056,,11,08,131,,13,05,031,*76\r\n'
b'$GPRMC,210606.000,A,0322.5569,N,07631.9609,W,0.00,160.74,060821,,,A*7F\r\n'
b'$GPGGA,210607.000,0322.5569,N,07631.9609,W,1,06,1.9,996.6,M,8.9,M,,0000*7A\r\n'
b'$GPGSA,A,3,24,29,18,15,32,23,,,,,,,3.6,1.9,3.1*3D\r\n'
b'$GPRMC,210607.000,A,0322.5569,N,07631.9609,W,0.00,160.74,060821,,,A*7E\r\n'
b'$GPGGA,210608.000,0322.5569,N,07631.9609,W,1,06,1.9,996.6,M,8.9,M,,0000*75\r\n'
b'$GPGSA,A,3,24,29,18,15,32,23,,,,,,,3.6,1.9,3.1*3D\r\n'
b'$GPRMC,210608.000,A,0322.5569,N,07631.9609,W,0.00,160.74,060821,,,A*71\r\n'
b'$GPGGA,210609.000,0322.5574,N,07631.9611,W,1,06,1.9,999.4,M,8.9,M,,0000*7C\r\n'
b'$GPGSA,A,3,24,29,18,15,32,23,,,,,,,3.6,1.9,3.1*3D\r\n'
b'$GPRMC,210609.000,A,0322.5574,N,07631.9611,W,0.15,160.74,060821,,,A*71\r\n'
b'$GPGGA,210610.000,0322.5574,N,07631.9611,W,1,06,1.9,999.4,M,8.9,M,,0000*74\r\n'
b'$GPGSA,A,3,24,29,18,15,32,23,,,,,,,3.6,1.9,3.1*3D\r\n'
b'$GPRMC,210610.000,A,0322.5574,N,07631.9611,W,0.01,160.74,060821,,,A*7C\r\n'
b'$GPGGA,210611.000,0322.5574,N,07631.9611,W,1,06,1.9,999.4,M,8.9,M,,0000*75\r\n'
b'$GPGSA,A,3,24,29,18,15,32,23,,,,,,,3.6,1.9,3.1*3D\r\n'
b'$GPGSV,3,1,12,24,62,099,45,29,54,227,42,18,35,343,41,15,29,016,44*76\r\n'
b'$GPGSV,3,2,12,32,18,239,30,23,17,326,31,12,16,158,20,25,17,191,*78\r\n'
b'$GPGSV,3,3,12,02,15,134,,05,15,056,,11,08,131,,13,05,031,*76\r\n'
b'$GPRMC,210611.000,A,0322.5574,N,07631.9611,W,0.00,160.74,060821,,,A*7C\r\n'
b'$GPGGA,210612.000,0322.5574,N,07631.9611,W,1,06,1.9,999.4,M,8.9,M,,0000*76\r\n'
b'$GPGSA,A,3,24,29,18,15,32,23,,,,,,,3.6,1.9,3.1*3D\r\n'
b'$GPRMC,210612.000,A,0322.5574,N,07631.9611,W,0.00,160.74,060821,,,A*7F\r\n'
b'$GPGGA,210613.000,0322.5574,N,07631.9611,W,1,06,1.9,999.5,M,8.9,M,,0000*76\r\n'
b'$GPGSA,A,3,24,29,18,15,32,23,,,,,,,3.6,1.9,3.1*3D\r\n'
b'$GPRMC,210613.000,A,0322.5574,N,07631.9611,W,0.00,160.74,060821,,,A*7E\r\n'
b'$GPGGA,210614.000,0322.5574,N,07631.9611,W,1,06,1.9,999.5,M,8.9,M,,0000*71\r\n'
b'$GPGSA,A,3,24,29,18,15,32,23,,,,,,,3.6,1.9,3.1*3D\r\n'
b'$GPRMC,210614.000,A,0322.5574,N,07631.9611,W,0.00,160.74,060821,,,A*79\r\n'
b'$GPGGA,210615.000,0322.5574,N,07631.9611,W,1,06,1.9,999.5,M,8.9,M,,0000*70\r\n'
b'$GPGSA,A,3,24,29,18,15,32,23,,,,,,,3.6,1.9,3.1*3D\r\n'
b'$GPRMC,210615.000,A,0322.5574,N,07631.9611,W,0.00,160.74,060821,,,A*78\r\n'
b'$GPGGA,210616.000,0322.5574,N,07631.9611,W,1,06,1.9,999.5,M,8.9,M,,0000*73\r\n'
b'$GPGSA,A,3,24,29,18,15,32,23,,,,,,,3.6,1.9,3.1*3D\r\n'
b'$GPGSV,3,1,12,24,62,099,44,29,54,227,42,18,35,343,41,15,29,016,44*77\r\n'
b'$GPGSV,3,2,12,32,18,239,30,23,17,326,31,02,15,134,22,05,15,056,16*7F\r\n'
b'$GPGSV,3,3,12,12,16,158,19,25,17,191,,11,08,131,,13,05,031,*7C\r\n'
b'$GPRMC,210616.000,A,0322.5574,N,07631.9611,W,0.00,160.74,060821,,,A*7B\r\n'
b'$GPGGA,210617.000,0322.5574,N,07631.9611,W,1,06,1.9,999.6,M,8.9,M,,0000*71\r\n'
b'$GPGSA,A,3,24,29,18,15,32,23,,,,,,,3.6,1.9,3.1*3D\r\n'
b'$GPRMC,210617.000,A,0322.5574,N,07631.9611,W,0.00,160.74,060821,,,A*7A\r\n'
b'$GPGGA,210618.000,0322.5575,N,07631.9611,W,1,06,1.9,999.6,M,8.9,M,,0000*7F\r\n'
b'$GPGSA,A,3,24,29,18,15,32,23,,,,,,,3.6,1.9,3.1*3D\r\n'
b'$GPRMC,210618.000,A,0322.5575,N,07631.9611,W,0.00,160.74,060821,,,A*74\r\n'
b'$GPGGA,210619.000,0322.5575,N,07631.9611,W,1,06,1.9,999.6,M,8.9,M,,0000*7E\r\n'
b'$GPGSA,A,3,24,29,18,15,32,23,,,,,,,3.6,1.9,3.1*3D\r\n'
b'$GPRMC,210619.000,A,0322.5575,N,07631.9611,W,0.00,160.74,060821,,,A*75\r\n'
b'$GPGGA,210620.000,0322.5575,N,07631.9611,W,1,06,1.9,999.6,M,8.9,M,,0000*74\r\n'
b'$GPGSA,A,3,24,29,18,15,32,23,,,,,,,3.6,1.9,3.1*3D\r\n'
b'$GPRMC,210620.000,A,0322.5575,N,07631.9611,W,0.00,160.74,060821,,,A*7F\r\n'
b'$GPGGA,210621.000,0322.5575,N,07631.9611,W,1,06,1.9,999.7,M,8.9,M,,0000*74\r\n'
b'$GPGSA,A,3,24,29,18,15,32,23,,,,,,,3.6,1.9,3.1*3D\r\n'
b'$GPGSV,3,1,12,24,62,099,44,29,54,227,43,18,35,343,41,15,29,016,44*76\r\n'
b'$GPGSV,3,2,12,32,18,239,30,23,17,326,30,02,15,134,22,12,16,158,18*7A\r\n'
b'$GPGSV,3,3,12,25,17,191,,05,15,056,,11,08,131,,13,05,031,*7E\r\n'
b'$GPRMC,210621.000,A,0322.5575,N,07631.9611,W,0.00,160.74,060821,,,A*7E\r\n'
b'$GPGGA,210622.000,0322.5575,N,07631.9611,W,1,06,1.9,999.7,M,8.9,M,,0000*77\r\n'
b'$GPGSA,A,3,24,29,18,15,32,23,,,,,,,3.6,1.9,3.1*3D\r\n'
b'$GPRMC,210622.000,A,0322.5575,N,07631.9611,W,0.00,160.74,060821,,,A*7D\r\n'
b'$GPGGA,210623.000,0322.5575,N,07631.9611,W,1,06,1.9,999.7,M,8.9,M,,0000*76\r\n'
b'$GPGSA,A,3,24,29,18,15,32,23,,,,,,,3.6,1.9,3.1*3D\r\n'
b'$GPRMC,210623.000,A,0322.5575,N,07631.9611,W,0.00,160.74,060821,,,A*7C\r\n'
b'$GPGGA,210624.000,0322.5575,N,07631.9611,W,1,06,1.9,999.7,M,8.9,M,,0000*71\r\n'
b'$GPGSA,A,3,24,29,18,15,32,23,,,,,,,3.6,1.9,3.1*3D\r\n'
b'$GPRMC,210624.000,A,0322.5575,N,07631.9611,W,0.00,160.74,060821,,,A*7B\r\n'
b'$GPGGA,210625.000,0322.5575,N,07631.9611,W,1,06,1.9,999.8,M,8.9,M,,0000*7F\r\n'
b'$GPGSA,A,3,24,29,18,15,32,23,,,,,,,3.6,1.9,3.1*3D\r\n'
b'$GPRMC,210625.000,A,0322.5575,N,07631.9611,W,0.00,160.74,060821,,,A*7A\r\n'
b'$GPGGA,210626.000,0322.5575,N,07631.9611,W,1,06,1.9,999.8,M,8.9,M,,0000*7C\r\n'
b'$GPGSA,A,3,24,29,18,15,32,23,,,,,,,3.6,1.9,3.1*3D\r\n'
b'$GPGSV,3,1,12,24,62,099,44,29,54,227,43,18,35,343,41,15,29,016,44*76\r\n'
b'$GPGSV,3,2,12,32,18,239,30,23,17,326,30,02,15,134,22,25,17,191,*73\r\n'
b'$GPGSV,3,3,12,12,16,158,,05,15,056,,11,08,131,,13,05,031,*7E\r\n'
b'$GPRMC,210626.000,A,0322.5575,N,07631.9611,W,0.00,160.74,060821,,,A*79\r\n'
b'$GPGGA,210627.000,0322.5575,N,07631.9611,W,1,06,1.9,999.8,M,8.9,M,,0000*7D\r\n'
b'$GPGSA,A,3,24,29,18,15,32,23,,,,,,,3.6,1.9,3.1*3D\r\n'
b'$GPRMC,210627.000,A,0322.5575,N,07631.9611,W,0.00,160.74,060821,,,A*78\r\n'
b'$GPGGA,210628.000,0322.5575,N,07631.9611,W,1,06,1.9,999.8,M,8.9,M,,0000*72\r\n'
b'$GPGSA,A,3,24,29,18,15,32,23,,,,,,,3.6,1.9,3.1*3D\r\n'
b'$GPRMC,210628.000,A,0322.5575,N,07631.9611,W,0.00,160.74,060821,,,A*77\r\n'
b'$GPGGA,210629.000,0322.5575,N,07631.9611,W,1,06,1.9,999.8,M,8.9,M,,0000*73\r\n'
b'$GPGSA,A,3,24,29,18,15,32,23,,,,,,,3.6,1.9,3.1*3D\r\n'
b'$GPRMC,210629.000,A,0322.5575,N,07631.9611,W,0.00,160.74,060821,,,A*76\r\n'
b'$GPGGA,210630.000,0322.5575,N,07631.9611,W,1,06,1.9,999.9,M,8.9,M,,0000*7A\r\n'
b'$GPGSA,A,3,24,29,18,15,32,23,,,,,,,3.6,1.9,3.1*3D\r\n'
b'$GPRMC,210630.000,A,0322.5575,N,07631.9611,W,0.00,160.74,060821,,,A*7E\r\n'
b'$GPGGA,210631.000,0322.5575,N,07631.9611,W,1,06,1.9,999.9,M,8.9,M,,0000*7B\r\n'
b'$GPGSA,A,3,24,29,18,15,32,23,,,,,,,3.6,1.9,3.1*3D\r\n'
b'$GPGSV,3,1,12,24,62,099,44,29,54,227,43,18,35,343,41,15,29,016,44*76\r\n'
b'$GPGSV,3,2,12,32,18,239,30,23,17,326,29,02,15,134,21,25,17,191,*78\r\n'
b'$GPGSV,3,3,12,12,16,158,,05,15,056,,11,08,131,,13,05,031,*7E\r\n'
b'$GPRMC,210631.000,A,0322.5575,N,07631.9611,W,0.00,160.74,060821,,,A*7F\r\n'
b'$GPGGA,210632.000,0322.5575,N,07631.9611,W,1,06,1.9,999.9,M,8.9,M,,0000*78\r\n'
b'$GPGSA,A,3,24,29,18,15,32,23,,,,,,,3.6,1.9,3.1*3D\r\n'
b'$GPRMC,210632.000,A,0322.5575,N,07631.9611,W,0.00,160.74,060821,,,A*7C\r\n'
b'$GPGGA,210633.000,0322.5575,N,07631.9611,W,1,06,1.9,999.9,M,8.9,M,,0000*79\r\n'
b'$GPGSA,A,3,24,29,18,15,32,23,,,,,,,3.6,1.9,3.1*3D\r\n'
b'$GPRMC,210633.000,A,0322.5575,N,07631.9611,W,0.00,160.74,060821,,,A*7D\r\n'
b'$GPGGA,210634.000,0322.5575,N,07631.9611,W,1,06,1.9,1000.0,M,8.9,M,,0000*4F\r\n'
b'$GPGSA,A,3,24,29,18,15,32,23,,,,,,,3.6,1.9,3.1*3D\r\n'
b'$GPRMC,210634.000,A,0322.5575,N,07631.9611,W,0.00,160.74,060821,,,A*7A\r\n'
b'$GPGGA,210635.000,0322.5575,N,07631.9611,W,1,06,1.9,1000.0,M,8.9,M,,0000*4E\r\n'
b'$GPGSA,A,3,24,29,18,15,32,23,,,,,,,3.6,1.9,3.1*3D\r\n'
b'$GPRMC,210635.000,A,0322.5575,N,07631.9611,W,0.00,160.74,060821,,,A*7B\r\n'
b'$GPGGA,210636.000,0322.5575,N,07631.9611,W,1,06,1.9,1000.0,M,8.9,M,,0000*4D\r\n'
b'$GPGSA,A,3,24,29,18,15,32,23,,,,,,,3.6,1.9,3.1*3D\r\n'
b'$GPGSV,3,1,12,24,62,099,44,29,54,227,43,18,35,343,42,15,29,016,44*75\r\n'
b'$GPGSV,3,2,12,32,18,239,30,23,17,326,28,02,15,134,21,25,17,191,*79\r\n'
b'$GPGSV,3,3,12,12,16,158,,05,15,056,,11,08,131,,13,05,031,*7E\r\n'
b'$GPRMC,210636.000,A,0322.5575,N,07631.9611,W,0.00,160.74,060821,,,A*78\r\n'
b'$GPGGA,210637.000,0322.5575,N,07631.9611,W,1,06,1.9,1000.0,M,8.9,M,,0000*4C\r\n'
b'$GPGSA,A,3,24,29,18,15,32,23,,,,,,,3.6,1.9,3.1*3D\r\n'
b'$GPRMC,210637.000,A,0322.5575,N,07631.9611,W,0.00,160.74,060821,,,A*79\r\n'
b'$GPGGA,210638.000,0322.5575,N,07631.9611,W,1,06,1.9,1000.0,M,8.9,M,,0000*43\r\n'
b'$GPGSA,A,3,24,29,18,15,32,23,,,,,,,3.6,1.9,3.1*3D\r\n'
b'$GPRMC,210638.000,A,0322.5575,N,07631.9611,W,0.00,160.74,060821,,,A*76\r\n'
b'$GPGGA,210639.000,0322.5576,N,07631.9611,W,1,06,1.9,1000.0,M,8.9,M,,0000*41\r\n'
b'$GPGSA,A,3,24,29,18,15,32,23,,,,,,,3.6,1.9,3.1*3D\r\n'
b'$GPRMC,210639.000,A,0322.5576,N,07631.9611,W,0.00,160.74,060821,,,A*74\r\n'
b'$GPGGA,210640.000,0322.5576,N,07631.9611,W,1,06,1.9,1000.1,M,8.9,M,,0000*4E\r\n'
b'$GPGSA,A,3,24,29,18,15,32,23,,,,,,,3.6,1.9,3.1*3D\r\n'
b'$GPRMC,210640.000,A,0322.5576,N,07631.9611,W,0.00,160.74,060821,,,A*7A\r\n'
b'$GPGGA,210641.000,0322.5576,N,07631.9611,W,1,06,1.9,1000.1,M,8.9,M,,0000*4F\r\n'
b'$GPGSA,A,3,24,29,18,15,32,23,,,,,,,3.6,1.9,3.1*3D\r\n'
b'$GPGSV,3,1,12,24,62,099,44,29,54,227,43,18,35,343,42,15,29,016,44*75\r\n'
b'$GPGSV,3,2,12,32,18,239,29,23,17,326,28,02,15,134,21,25,17,191,*71\r\n'
b'$GPGSV,3,3,12,12,16,158,,05,15,056,,11,08,131,,13,05,031,*7E\r\n'
b'$GPRMC,210641.000,A,0322.5576,N,07631.9611,W,0.00,160.74,060821,,,A*7B\r\n'
b'$GPGGA,210642.000,0322.5576,N,07631.9611,W,1,06,1.9,1000.1,M,8.9,M,,0000*4C\r\n'
b'$GPGSA,A,3,24,29,18,15,32,23,,,,,,,3.6,1.9,3.1*3D\r\n'
b'$GPRMC,210642.000,A,0322.5576,N,07631.9611,W,0.00,160.74,060821,,,A*78\r\n'
b'$GPGGA,210643.000,0322.5576,N,07631.9611,W,1,06,1.9,1000.1,M,8.9,M,,0000*4D\r\n'
b'$GPGSA,A,3,24,29,18,15,32,23,,,,,,,3.6,1.9,3.1*3D\r\n'
b'$GPRMC,210643.000,A,0322.5576,N,07631.9611,W,0.00,160.74,060821,,,A*79\r\n'
b'$GPGGA,210644.000,0322.5576,N,07631.9611,W,1,06,1.9,1000.1,M,8.9,M,,0000*4A\r\n'
b'$GPGSA,A,3,24,29,18,15,32,23,,,,,,,3.6,1.9,3.1*3D\r\n'
b'$GPRMC,210644.000,A,0322.5576,N,07631.9611,W,0.00,160.74,060821,,,A*7E\r\n'
b'$GPGGA,210645.000,0322.5576,N,07631.9611,W,1,06,1.9,1000.1,M,8.9,M,,0000*4B\r\n'
b'$GPGSA,A,3,24,29,18,15,32,23,,,,,,,3.6,1.9,3.1*3D\r\n'
b'$GPRMC,210645.000,A,0322.5576,N,07631.9611,W,0.00,160.74,060821,,,A*7F\r\n'
b'$GPGGA,210646.000,0322.5576,N,07631.9611,W,1,06,1.9,1000.1,M,8.9,M,,0000*48\r\n'
b'$GPGSA,A,3,24,29,18,15,32,23,,,,,,,3.6,1.9,3.1*3D\r\n'
b'$GPGSV,3,1,12,24,62,099,43,29,54,227,43,18,35,343,42,15,29,016,44*72\r\n'
b'$GPGSV,3,2,12,32,18,239,24,23,17,326,28,02,15,134,20,25,17,191,*7D\r\n'
b'$GPGSV,3,3,12,12,16,158,,05,15,056,,11,08,131,,13,05,031,*7E\r\n'
b'$GPRMC,210646.000,A,0322.5576,N,07631.9611,W,0.00,160.74,060821,,,A*7C\r\n'
b'$GPGGA,210647.000,0322.5576,N,07631.9611,W,1,06,1.9,1000.1,M,8.9,M,,0000*49\r\n'
b'$GPGSA,A,3,24,29,18,15,32,23,,,,,,,3.6,1.9,3.1*3D\r\n'
b'$GPRMC,210647.000,A,0322.5576,N,07631.9611,W,0.00,160.74,060821,,,A*7D\r\n'
b'$GPGGA,210648.000,0322.5576,N,07631.9611,W,1,06,1.9,1000.1,M,8.9,M,,0000*46\r\n'
b'$GPGSA,A,3,24,29,18,15,32,23,,,,,,,3.6,1.9,3.1*3D\r\n'
b'$GPRMC,210648.000,A,0322.5576,N,07631.9611,W,0.00,160.74,060821,,,A*72\r\n'
b'$GPGGA,210649.000,0322.5576,N,07631.9611,W,1,06,1.9,1000.1,M,8.9,M,,0000*47\r\n'
b'$GPGSA,A,3,24,29,18,15,32,23,,,,,,,3.6,1.9,3.1*3D\r\n'
b'$GPRMC,210649.000,A,0322.5576,N,07631.9611,W,0.00,160.74,060821,,,A*73\r\n'
b'$GPGGA,210650.000,0322.5576,N,07631.9611,W,1,06,1.9,1000.1,M,8.9,M,,0000*4F\r\n'
b'$GPGSA,A,3,24,29,18,15,32,23,,,,,,,3.6,1.9,3.1*3D\r\n'
b'$GPRMC,210650.000,A,0322.5576,N,07631.9611,W,0.00,160.74,060821,,,A*7B\r\n'
b'$GPGGA,210651.000,0322.5576,N,07631.9611,W,1,06,1.9,1000.1,M,8.9,M,,0000*4E\r\n'
b'$GPGSA,A,3,24,29,18,15,32,23,,,,,,,3.6,1.9,3.1*3D\r\n'
b'$GPGSV,3,1,12,24,62,099,44,29,54,227,43,18,35,343,43,15,29,016,45*75\r\n'
b'$GPGSV,3,2,12,32,18,239,24,23,17,326,27,02,15,134,21,12,16,158,25*74\r\n'
b'$GPGSV,3,3,12,25,17,191,24,05,15,056,,11,08,131,,13,05,031,*78\r\n'
b'$GPRMC,210651.000,A,0322.5576,N,07631.9611,W,0.00,160.74,060821,,,A*7A\r\n'
b'$GPGGA,210652.000,0322.5576,N,07631.9611,W,1,06,1.9,1000.1,M,8.9,M,,0000*4D\r\n'
b'$GPGSA,A,3,24,29,18,15,32,23,,,,,,,3.6,1.9,3.1*3D\r\n'
b'$GPRMC,210652.000,A,0322.5576,N,07631.9611,W,0.00,160.74,060821,,,A*79\r\n'
b'$GPGGA,210653.000,0322.5577,N,07631.9612,W,1,06,1.9,1000.1,M,8.9,M,,0000*4E\r\n'
b'$GPGSA,A,3,24,29,18,15,32,23,,,,,,,3.6,1.9,3.1*3D\r\n'
b'$GPRMC,210653.000,A,0322.5577,N,07631.9612,W,0.15,160.74,060821,,,A*7E\r\n'
b'$GPGGA,210654.000,0322.5577,N,07631.9612,W,1,06,1.9,1000.1,M,8.9,M,,0000*49\r\n'
b'$GPGSA,A,3,24,29,18,15,32,23,,,,,,,3.6,1.9,3.1*3D\r\n'
b'$GPRMC,210654.000,A,0322.5577,N,07631.9612,W,0.01,160.74,060821,,,A*7C\r\n'
b'$GPGGA,210655.000,0322.5577,N,07631.9612,W,1,06,1.9,1000.1,M,8.9,M,,0000*48\r\n'
b'$GPGSA,A,3,24,29,18,15,32,23,,,,,,,3.6,1.9,3.1*3D\r\n'
b'$GPRMC,210655.000,A,0322.5577,N,07631.9612,W,0.00,160.74,060821,,,A*7C\r\n'
b'$GPGGA,210656.000,0322.5577,N,07631.9612,W,1,06,1.9,1000.1,M,8.9,M,,0000*4B\r\n'
b'$GPGSA,A,3,24,29,18,15,32,23,,,,,,,3.6,1.9,3.1*3D\r\n'
b'$GPGSV,3,1,12,24,62,099,43,29,54,227,42,18,35,343,43,15,29,016,45*73\r\n'
b'$GPGSV,3,2,12,32,18,239,21,23,17,326,28,02,15,134,20,12,16,158,25*7F\r\n'
b'$GPGSV,3,3,12,25,17,191,24,05,15,056,,11,08,131,,13,05,031,*78\r\n'
b'$GPRMC,210656.000,A,0322.5577,N,07631.9612,W,0.00,160.74,060821,,,A*7F\r\n'
b'$GPGGA,210657.000,0322.5577,N,07631.9612,W,1,06,1.9,1000.1,M,8.9,M,,0000*4A\r\n'
b'$GPGSA,A,3,24,29,18,15,32,23,,,,,,,3.6,1.9,3.1*3D\r\n'
b'$GPRMC,210657.000,A,0322.5577,N,07631.9612,W,0.00,160.74,060821,,,A*7E\r\n'
b'$GPGGA,210658.000,0322.5577,N,07631.9612,W,1,06,1.9,1000.1,M,8.9,M,,0000*45\r\n'
b'$GPGSA,A,3,24,29,18,15,32,23,,,,,,,3.6,1.9,3.1*3D\r\n'
b'$GPRMC,210658.000,A,0322.5577,N,07631.9612,W,0.00,160.74,060821,,,A*71\r\n'
b'$GPGGA,210659.000,0322.5577,N,07631.9612,W,1,06,1.9,1000.1,M,8.9,M,,0000*44\r\n'
b'$GPGSA,A,3,24,29,18,15,32,23,,,,,,,3.6,1.9,3.1*3D\r\n'
b'$GPRMC,210659.000,A,0322.5577,N,07631.9612,W,0.00,160.74,060821,,,A*70\r\n'
b'$GPGGA,210700.000,0322.5577,N,07631.9612,W,1,06,1.9,1000.1,M,8.9,M,,0000*49\r\n'
b'$GPGSA,A,3,24,29,18,15,32,23,,,,,,,3.6,1.9,3.1*3D\r\n'
b'$GPRMC,210700.000,A,0322.5577,N,07631.9612,W,0.00,160.74,060821,,,A*7D\r\n'
b'$GPGGA,210701.000,0322.5577,N,07631.9612,W,1,06,1.9,1000.1,M,8.9,M,,0000*48\r\n'
b'$GPGSA,A,3,24,29,18,15,32,23,,,,,,,3.6,1.9,3.1*3D\r\n'
b'$GPGSV,3,1,12,24,62,099,44,29,54,227,43,18,35,343,43,15,29,016,46*76\r\n'
b'$GPGSV,3,2,12,32,18,239,21,23,17,326,32,02,15,134,20,25,17,191,23*72\r\n'
b'$GPGSV,3,3,12,12,16,158,,05,15,056,,11,08,131,,13,05,031,*7E\r\n'
b'$GPRMC,210701.000,A,0322.5577,N,07631.9612,W,0.00,160.74,060821,,,A*7C\r\n'
b'$GPGGA,210702.000,0322.5577,N,07631.9612,W,1,06,1.9,1000.1,M,8.9,M,,0000*4B\r\n'
b'$GPGSA,A,3,24,29,18,15,32,23,,,,,,,3.6,1.9,3.1*3D\r\n'
b'$GPRMC,210702.000,A,0322.5577,N,07631.9612,W,0.00,160.74,060821,,,A*7F\r\n'
b'$GPGGA,210703.000,0322.5577,N,07631.9612,W,1,06,1.9,1000.1,M,8.9,M,,0000*4A\r\n'
b'$GPGSA,A,3,24,29,18,15,32,23,,,,,,,3.6,1.9,3.1*3D\r\n'
b'$GPRMC,210703.000,A,0322.5577,N,07631.9612,W,0.00,160.74,060821,,,A*7E\r\n'
b'$GPGGA,210704.000,0322.5577,N,07631.9612,W,1,06,1.9,1000.1,M,8.9,M,,0000*4D\r\n'
b'$GPGSA,A,3,24,29,18,15,32,23,,,,,,,3.6,1.9,3.1*3D\r\n'
b'$GPRMC,210704.000,A,0322.5577,N,07631.9612,W,0.00,160.74,060821,,,A*79\r\n'
b'$GPGGA,210705.000,0322.5577,N,07631.9612,W,1,06,1.9,1000.1,M,8.9,M,,0000*4C\r\n'
b'$GPGSA,A,3,24,29,18,15,32,23,,,,,,,3.6,1.9,3.1*3D\r\n'
b'$GPRMC,210705.000,A,0322.5577,N,07631.9612,W,0.00,160.74,060821,,,A*78\r\n'
b'$GPGGA,210706.000,0322.5577,N,07631.9612,W,1,06,1.9,1000.1,M,8.9,M,,0000*4F\r\n'
b'$GPGSA,A,3,24,29,18,15,32,23,,,,,,,3.6,1.9,3.1*3D\r\n'
b'$GPGSV,3,1,12,24,62,099,45,29,54,227,43,18,35,343,43,15,29,016,46*77\r\n'
b'$GPGSV,3,2,12,32,18,239,21,23,17,326,32,02,15,134,20,25,17,191,23*72\r\n'
b'$GPGSV,3,3,12,12,16,158,,05,15,056,,11,08,131,,13,05,031,*7E\r\n'
b'$GPRMC,210706.000,A,0322.5577,N,07631.9612,W,0.00,160.74,060821,,,A*7B\r\n'
b'$GPGGA,210707.000,0322.5577,N,07631.9612,W,1,06,1.9,1000.1,M,8.9,M,,0000*4E\r\n'
b'$GPGSA,A,3,24,29,18,15,32,23,,,,,,,3.6,1.9,3.1*3D\r\n'
b'$GPRMC,210707.000,A,0322.5577,N,07631.9612,W,0.00,160.74,060821,,,A*7A\r\n'
b'$GPGGA,210708.000,0322.5577,N,07631.9612,W,1,06,1.9,1000.1,M,8.9,M,,0000*41\r\n'
b'$GPGSA,A,3,24,29,18,15,32,23,,,,,,,3.6,1.9,3.1*3D\r\n'
b'$GPRMC,210708.000,A,0322.5577,N,07631.9612,W,0.00,160.74,060821,,,A*75\r\n'
b'$GPGGA,210709.000,0322.5577,N,07631.9612,W,1,06,1.9,1000.1,M,8.9,M,,0000*40\r\n'
b'$GPGSA,A,3,24,29,18,15,32,23,,,,,,,3.6,1.9,3.1*3D\r\n'
b'$GPRMC,210709.000,A,0322.5577,N,07631.9612,W,0.00,160.74,060821,,,A*74\r\n'
b'$GPGGA,210710.000,0322.5577,N,07631.9613,W,1,06,1.9,1000.1,M,8.9,M,,0000*49\r\n'
b'$GPGSA,A,3,24,29,18,15,32,23,,,,,,,3.6,1.9,3.1*3D\r\n'
b'$GPRMC,210710.000,A,0322.5577,N,07631.9613,W,0.00,160.74,060821,,,A*7D\r\n'
b'$GPGGA,210711.000,0322.5577,N,07631.9613,W,1,06,1.9,1000.1,M,8.9,M,,0000*48\r\n'
b'$GPGSA,A,3,24,29,18,15,32,23,,,,,,,3.6,1.9,3.1*3D\r\n'
b'$GPGSV,3,1,12,24,62,099,42,29,54,227,37,18,35,343,43,15,29,016,46*73\r\n'
b'$GPGSV,3,2,12,32,18,239,20,23,17,326,32,02,15,134,19,25,17,191,16*7F\r\n'
b'$GPGSV,3,3,12,12,16,158,,05,15,056,,11,08,131,,13,05,031,*7E\r\n'
b'$GPRMC,210711.000,A,0322.5577,N,07631.9613,W,0.00,160.74,060821,,,A*7C\r\n'
b'$GPGGA,210712.000,0322.5577,N,07631.9613,W,1,06,1.9,1000.1,M,8.9,M,,0000*4B\r\n'
b'$GPGSA,A,3,24,29,18,15,32,23,,,,,,,3.6,1.9,3.1*3D\r\n'
b'$GPRMC,210712.000,A,0322.5577,N,07631.9613,W,0.00,160.74,060821,,,A*7F\r\n'
b'$GPGGA,210713.000,0322.5577,N,07631.9613,W,1,06,1.9,1000.1,M,8.9,M,,0000*4A\r\n'
b'$GPGSA,A,3,24,29,18,15,32,23,,,,,,,3.6,1.9,3.1*3D\r\n'
b'$GPRMC,210713.000,A,0322.5577,N,07631.9613,W,0.00,160.74,060821,,,A*7E\r\n'
b'$GPGGA,210714.000,0322.5577,N,07631.9613,W,1,06,1.9,999.7,M,8.9,M,,0000*73\r\n'
b'$GPGSA,A,3,24,29,18,15,32,23,,,,,,,3.6,1.9,3.1*3D\r\n'
b'$GPRMC,210714.000,A,0322.5577,N,07631.9613,W,0.20,160.74,060821,,,A*7B\r\n'
b'$GPGGA,210715.000,0322.5577,N,07631.9614,W,1,06,1.9,999.7,M,8.9,M,,0000*75\r\n'
b'$GPGSA,A,3,24,29,18,15,32,23,,,,,,,3.6,1.9,3.1*3D\r\n'
b'$GPRMC,210715.000,A,0322.5577,N,07631.9614,W,0.18,160.74,060821,,,A*76\r\n'
b'$GPGGA,210716.000,0322.5577,N,07631.9614,W,1,06,1.9,999.7,M,8.9,M,,0000*76\r\n'
b'$GPGSA,A,3,24,29,18,15,32,23,,,,,,,3.6,1.9,3.1*3D\r\n'
b'$GPGSV,3,1,12,24,62,099,42,29,54,227,26,18,35,343,43,15,29,016,44*71\r\n'
b'$GPGSV,3,2,12,32,18,239,19,23,17,326,24,02,15,134,18,25,17,191,15*70\r\n'
b'$GPGSV,3,3,12,12,16,158,,05,15,056,,11,08,131,,13,05,031,*7E\r\n'
b'$GPRMC,210716.000,A,0322.5577,N,07631.9614,W,0.16,160.74,060821,,,A*7B\r\n'
b'$GPGGA,210717.000,0322.5577,N,07631.9614,W,1,06,1.9,999.8,M,8.9,M,,0000*78\r\n'
b'$GPGSA,A,3,24,29,18,15,32,23,,,,,,,3.6,1.9,3.1*3D\r\n'
b'$GPRMC,210717.000,A,0322.5577,N,07631.9614,W,0.00,160.74,060821,,,A*7D\r\n'
b'$GPGGA,210718.000,0322.5577,N,07631.9614,W,1,06,1.9,999.5,M,8.9,M,,0000*7A\r\n'
b'$GPGSA,A,3,24,29,18,15,32,23,,,,,,,3.6,1.9,3.1*3D\r\n'
b'$GPRMC,210718.000,A,0322.5577,N,07631.9614,W,0.14,160.74,060821,,,A*77\r\n'
b'$GPGGA,210719.000,0322.5577,N,07631.9614,W,1,06,1.9,999.5,M,8.9,M,,0000*7B\r\n'
b'$GPGSA,A,3,24,29,18,15,32,23,,,,,,,3.6,1.9,3.1*3D\r\n'
b'$GPRMC,210719.000,A,0322.5577,N,07631.9614,W,0.14,160.74,060821,,,A*76\r\n'
b'$GPGGA,210720.000,0322.5577,N,07631.9614,W,1,06,1.9,999.5,M,8.9,M,,0000*71\r\n'
b'$GPGSA,A,3,24,29,18,15,32,23,,,,,,,3.6,1.9,3.1*3D\r\n'
b'$GPRMC,210720.000,A,0322.5577,N,07631.9614,W,0.00,160.74,060821,,,A*79\r\n'
b'$GPGGA,210721.000,0322.5577,N,07631.9614,W,1,06,1.9,999.5,M,8.9,M,,0000*70\r\n'
b'$GPGSA,A,3,24,29,18,15,32,23,,,,,,,3.6,1.9,3.1*3D\r\n'
b'$GPGSV,3,1,12,24,62,099,43,29,54,227,41,18,35,343,44,15,29,016,44*76\r\n'
b'$GPGSV,3,2,12,32,18,239,20,23,17,326,27,02,15,134,18,25,17,191,14*78\r\n'
b'$GPGSV,3,3,12,12,16,158,,05,15,056,,11,08,131,,13,05,031,*7E\r\n'
b'$GPRMC,210721.000,A,0322.5577,N,07631.9614,W,0.00,160.74,060821,,,A*78\r\n'
b'$GPGGA,210722.000,0322.5577,N,07631.9614,W,1,06,1.9,999.5,M,8.9,M,,0000*73\r\n'
b'$GPGSA,A,3,24,29,18,15,32,23,,,,,,,3.6,1.9,3.1*3D\r\n'
b'$GPRMC,210722.000,A,0322.5577,N,07631.9614,W,0.00,160.74,060821,,,A*7B\r\n'
b'$GPGGA,210723.000,0322.5577,N,07631.9614,W,1,06,1.9,999.5,M,8.9,M,,0000*72\r\n'
b'$GPGSA,A,3,24,29,18,15,32,23,,,,,,,3.6,1.9,3.1*3D\r\n'
b'$GPRMC,210723.000,A,0322.5577,N,07631.9614,W,0.00,160.74,060821,,,A*7A\r\n'
b'$GPGGA,210724.000,0322.5577,N,07631.9614,W,1,06,1.9,999.5,M,8.9,M,,0000*75\r\n'
b'$GPGSA,A,3,24,29,18,15,32,23,,,,,,,3.6,1.9,3.1*3D\r\n'
b'$GPRMC,210724.000,A,0322.5577,N,07631.9614,W,0.00,160.74,060821,,,A*7D\r\n'
b'$GPGGA,210725.000,0322.5577,N,07631.9614,W,1,06,1.9,999.5,M,8.9,M,,0000*74\r\n'
b'$GPGSA,A,3,24,29,18,15,32,23,,,,,,,3.6,1.9,3.1*3D\r\n'
b'$GPRMC,210725.000,A,0322.5577,N,07631.9614,W,0.00,160.74,060821,,,A*7C\r\n'
b'$GPGGA,210726.000,0322.5577,N,07631.9614,W,1,06,1.9,999.5,M,8.9,M,,0000*77\r\n'
b'$GPGSA,A,3,24,29,18,15,32,23,,,,,,,3.6,1.9,3.1*3D\r\n'
b'$GPGSV,3,1,12,24,62,099,43,29,54,227,41,18,35,343,45,15,29,016,45*76\r\n'
b'$GPGSV,3,2,12,32,18,239,21,23,17,326,28,02,15,134,18,25,17,191,12*70\r\n'
b'$GPGSV,3,3,12,12,16,158,,05,15,056,,11,08,131,,13,05,031,*7E\r\n'
b'$GPRMC,210726.000,A,0322.5577,N,07631.9614,W,0.00,160.74,060821,,,A*7F\r\n'
b'$GPGGA,210727.000,0322.5577,N,07631.9615,W,1,06,1.9,999.4,M,8.9,M,,0000*76\r\n'
b'$GPGSA,A,3,24,29,18,15,32,23,,,,,,,3.6,1.9,3.1*3D\r\n'
b'$GPRMC,210727.000,A,0322.5577,N,07631.9615,W,0.14,160.74,060821,,,A*7A\r\n'
b'$GPGGA,210728.000,0322.5577,N,07631.9615,W,1,06,1.9,999.4,M,8.9,M,,0000*79\r\n'
b'$GPGSA,A,3,24,29,18,15,32,23,,,,,,,3.6,1.9,3.1*3D\r\n'
b'$GPRMC,210728.000,A,0322.5577,N,07631.9615,W,0.01,160.74,060821,,,A*71\r\n'
b'$GPGGA,210729.000,0322.5577,N,07631.9615,W,1,06,1.9,999.4,M,8.9,M,,0000*78\r\n'
b'$GPGSA,A,3,24,29,18,15,32,23,,,,,,,3.6,1.9,3.1*3D\r\n'
b'$GPRMC,210729.000,A,0322.5577,N,07631.9615,W,0.00,160.74,060821,,,A*71\r\n'
b'$GPGGA,210730.000,0322.5577,N,07631.9615,W,1,06,1.9,999.4,M,8.9,M,,0000*70\r\n'
b'$GPGSA,A,3,24,29,18,15,32,23,,,,,,,3.6,1.9,3.1*3D\r\n'
b'$GPRMC,210730.000,A,0322.5577,N,07631.9615,W,0.00,160.74,060821,,,A*79\r\n'
b'$GPGGA,210731.000,0322.5577,N,07631.9615,W,1,06,1.9,999.4,M,8.9,M,,0000*71\r\n'
b'$GPGSA,A,3,24,29,18,15,32,23,,,,,,,3.6,1.9,3.1*3D\r\n'
b'$GPGSV,3,1,12,24,62,099,43,29,54,227,41,18,35,343,45,15,29,016,45*76\r\n'
b'$GPGSV,3,2,12,32,18,239,27,23,17,326,29,02,15,134,19,25,17,191,*75\r\n'
b'$GPGSV,3,3,12,12,16,158,,05,15,056,,11,08,131,,13,05,031,*7E\r\n'
b'$GPRMC,210731.000,A,0322.5577,N,07631.9615,W,0.00,160.74,060821,,,A*78\r\n'
b'$GPGGA,210732.000,0322.5577,N,07631.9615,W,1,06,1.9,999.4,M,8.9,M,,0000*72\r\n'
b'$GPGSA,A,3,24,29,18,15,32,23,,,,,,,3.6,1.9,3.1*3D\r\n'
b'$GPRMC,210732.000,A,0322.5577,N,07631.9615,W,0.00,160.74,060821,,,A*7B\r\n'
b'$GPGGA,210733.000,0322.5577,N,07631.9615,W,1,06,1.9,999.4,M,8.9,M,,0000*73\r\n'
b'$GPGSA,A,3,24,29,18,15,32,23,,,,,,,3.6,1.9,3.1*3D\r\n'
b'$GPRMC,210733.000,A,0322.5577,N,07631.9615,W,0.00,160.74,060821,,,A*7A\r\n'
b'$GPGGA,210734.000,0322.5577,N,07631.9615,W,1,06,1.9,999.4,M,8.9,M,,0000*74\r\n'
b'$GPGSA,A,3,24,29,18,15,32,23,,,,,,,3.6,1.9,3.1*3D\r\n'
b'$GPRMC,210734.000,A,0322.5577,N,07631.9615,W,0.00,160.74,060821,,,A*7D\r\n'
b'$GPGGA,210735.000,0322.5577,N,07631.9615,W,1,06,1.9,999.4,M,8.9,M,,0000*75\r\n'
b'$GPGSA,A,3,24,29,18,15,32,23,,,,,,,3.6,1.9,3.1*3D\r\n'
b'$GPRMC,210735.000,A,0322.5577,N,07631.9615,W,0.00,160.74,060821,,,A*7C\r\n'
b'$GPGGA,210736.000,0322.5577,N,07631.9615,W,1,06,1.9,999.4,M,8.9,M,,0000*76\r\n'
b'$GPGSA,A,3,24,29,18,15,32,23,,,,,,,3.6,1.9,3.1*3D\r\n'
b'$GPGSV,3,1,12,24,62,096,42,29,53,225,40,18,37,343,44,15,28,016,44*7F\r\n'
b'$GPGSV,3,2,12,32,18,240,19,23,17,327,30,02,14,134,18,25,17,190,*7E\r\n'
b'$GPGSV,3,3,12,12,16,157,,05,15,057,,11,07,132,,13,04,031,*7D\r\n'
b'$GPRMC,210736.000,A,0322.5577,N,07631.9615,W,0.00,160.74,060821,,,A*7F\r\n'
b'$GPGGA,210737.000,0322.5577,N,07631.9615,W,1,06,1.9,999.4,M,8.9,M,,0000*77\r\n'
b'$GPGSA,A,3,24,29,18,15,32,23,,,,,,,3.6,1.9,3.1*3D\r\n'
b'$GPRMC,210737.000,A,0322.5577,N,07631.9615,W,0.00,160.74,060821,,,A*7E\r\n'
b'$GPGGA,210738.000,0322.5577,N,07631.9615,W,1,06,1.9,999.4,M,8.9,M,,0000*78\r\n'
b'$GPGSA,A,3,24,29,18,15,32,23,,,,,,,3.6,1.9,3.1*3D\r\n'
b'$GPRMC,210738.000,A,0322.5577,N,07631.9615,W,0.00,160.74,060821,,,A*71\r\n'
b'$GPGGA,210739.000,0322.5577,N,07631.9615,W,1,06,1.9,999.4,M,8.9,M,,0000*79\r\n'
b'$GPGSA,A,3,24,29,18,15,32,23,,,,,,,3.6,1.9,3.1*3D\r\n'
b'$GPRMC,210739.000,A,0322.5577,N,07631.9615,W,0.00,160.74,060821,,,A*70\r\n'
b'$GPGGA,210740.000,0322.5577,N,07631.9615,W,1,06,1.9,999.4,M,8.9,M,,0000*77\r\n'
b'$GPGSA,A,3,24,29,18,15,32,23,,,,,,,3.6,1.9,3.1*3D\r\n'
b'$GPRMC,210740.000,A,0322.5577,N,07631.9615,W,0.00,160.74,060821,,,A*7E\r\n'
b'$GPGGA,210741.000,0322.5577,N,07631.9615,W,1,06,1.9,999.4,M,8.9,M,,0000*76\r\n'
b'$GPGSA,A,3,24,29,18,15,32,23,,,,,,,3.6,1.9,3.1*3D\r\n'
b'$GPGSV,3,1,12,24,62,096,42,29,53,225,40,18,37,343,44,15,28,016,44*7F\r\n'
b'$GPGSV,3,2,12,32,18,240,23,23,17,327,30,02,14,134,18,25,17,190,*77\r\n'
b'$GPGSV,3,3,12,12,16,157,,05,15,057,,11,07,132,,13,04,031,*7D\r\n'
b'$GPRMC,210741.000,A,0322.5577,N,07631.9615,W,0.00,160.74,060821,,,A*7F\r\n'
b'$GPGGA,210742.000,0322.5577,N,07631.9615,W,1,06,1.9,999.4,M,8.9,M,,0000*75\r\n'
b'$GPGSA,A,3,24,29,18,15,32,23,,,,,,,3.6,1.9,3.1*3D\r\n'
b'$GPRMC,210742.000,A,0322.5577,N,07631.9615,W,0.00,160.74,060821,,,A*7C\r\n'
b'$GPGGA,210743.000,0322.5577,N,07631.9615,W,1,06,1.9,999.4,M,8.9,M,,0000*74\r\n'
b'$GPGSA,A,3,24,29,18,15,32,23,,,,,,,3.6,1.9,3.1*3D\r\n'
b'$GPRMC,210743.000,A,0322.5577,N,07631.9615,W,0.00,160.74,060821,,,A*7D\r\n'
b'$GPGGA,210744.000,0322.5577,N,07631.9615,W,1,06,1.9,999.4,M,8.9,M,,0000*73\r\n'
b'$GPGSA,A,3,24,29,18,15,32,23,,,,,,,3.6,1.9,3.1*3D\r\n'
b'$GPRMC,210744.000,A,0322.5577,N,07631.9615,W,0.00,160.74,060821,,,A*7A\r\n'
b'$GPGGA,210745.000,0322.5577,N,07631.9615,W,1,06,1.9,999.4,M,8.9,M,,0000*72\r\n'
b'$GPGSA,A,3,24,29,18,15,32,23,,,,,,,3.6,1.9,3.1*3D\r\n'
b'$GPRMC,210745.000,A,0322.5577,N,07631.9615,W,0.00,160.74,060821,,,A*7B\r\n'
b'$GPGGA,210746.000,0322.5577,N,07631.9615,W,1,06,1.9,999.4,M,8.9,M,,0000*71\r\n'
b'$GPGSA,A,3,24,29,18,15,32,23,,,,,,,3.6,1.9,3.1*3D\r\n'
b'$GPGSV,3,1,12,24,62,096,42,29,53,225,40,18,37,343,43,15,28,016,44*78\r\n'
b'$GPGSV,3,2,12,32,18,240,23,23,17,327,30,02,14,134,16,25,17,190,*79\r\n'
b'$GPGSV,3,3,12,12,16,157,,05,15,057,,11,07,132,,13,04,031,*7D\r\n'
b'$GPRMC,210746.000,A,0322.5577,N,07631.9615,W,0.00,160.74,060821,,,A*78\r\n'
b'$GPGGA,210747.000,0322.5577,N,07631.9615,W,1,06,1.9,999.4,M,8.9,M,,0000*70\r\n'
b'$GPGSA,A,3,24,29,18,15,32,23,,,,,,,3.6,1.9,3.1*3D\r\n'
b'$GPRMC,210747.000,A,0322.5577,N,07631.9615,W,0.00,160.74,060821,,,A*79\r\n'
b'$GPGGA,210748.000,0322.5577,N,07631.9615,W,1,06,1.9,999.4,M,8.9,M,,0000*7F\r\n'
b'$GPGSA,A,3,24,29,18,15,32,23,,,,,,,3.6,1.9,3.1*3D\r\n'
b'$GPRMC,210748.000,A,0322.5577,N,07631.9615,W,0.00,160.74,060821,,,A*76\r\n'
b'$GPGGA,210749.000,0322.5577,N,07631.9615,W,1,06,1.9,999.4,M,8.9,M,,0000*7E\r\n'
b'$GPGSA,A,3,24,29,18,15,32,23,,,,,,,3.6,1.9,3.1*3D\r\n'
b'$GPRMC,210749.000,A,0322.5577,N,07631.9615,W,0.00,160.74,060821,,,A*77\r\n'
b'$GPGGA,210750.000,0322.5577,N,07631.9615,W,1,06,1.9,999.4,M,8.9,M,,0000*76\r\n'
b'$GPGSA,A,3,24,29,18,15,32,23,,,,,,,3.6,1.9,3.1*3D\r\n'
b'$GPRMC,210750.000,A,0322.5577,N,07631.9615,W,0.00,160.74,060821,,,A*7F\r\n'
b'$GPGGA,210751.000,0322.5577,N,07631.9615,W,1,06,1.9,999.4,M,8.9,M,,0000*77\r\n'
b'$GPGSA,A,3,24,29,18,15,32,23,,,,,,,3.6,1.9,3.1*3D\r\n'
b'$GPGSV,3,1,12,24,62,096,42,29,53,225,41,18,37,343,43,15,28,016,43*7E\r\n'
b'$GPGSV,3,2,12,32,18,240,24,23,17,327,31,02,14,134,15,25,17,190,*7C\r\n'
b'$GPGSV,3,3,12,12,16,157,,05,15,057,,11,07,132,,13,04,031,*7D\r\n'
b'$GPRMC,210751.000,A,0322.5577,N,07631.9615,W,0.00,160.74,060821,,,A*7E\r\n'
b'$GPGGA,210752.000,0322.5577,N,07631.9615,W,1,06,1.9,999.4,M,8.9,M,,0000*74\r\n'
b'$GPGSA,A,3,24,29,18,15,32,23,,,,,,,3.6,1.9,3.1*3D\r\n'
b'$GPRMC,210752.000,A,0322.5577,N,07631.9615,W,0.00,160.74,060821,,,A*7D\r\n'
b'$GPGGA,210753.000,0322.5577,N,07631.9615,W,1,06,1.9,999.4,M,8.9,M,,0000*75\r\n'
b'$GPGSA,A,3,24,29,18,15,32,23,,,,,,,3.6,1.9,3.1*3D\r\n'
b'$GPRMC,210753.000,A,0322.5577,N,07631.9615,W,0.00,160.74,060821,,,A*7C\r\n'
b'$GPGGA,210754.000,0322.5577,N,07631.9615,W,1,06,1.9,999.4,M,8.9,M,,0000*72\r\n'
b'$GPGSA,A,3,24,29,18,15,32,23,,,,,,,3.6,1.9,3.1*3D\r\n'
b'$GPRMC,210754.000,A,0322.5577,N,07631.9615,W,0.00,160.74,060821,,,A*7B\r\n'
b'$GPGGA,210755.000,0322.5577,N,07631.9615,W,1,06,1.9,999.4,M,8.9,M,,0000*73\r\n'
b'$GPGSA,A,3,24,29,18,15,32,23,,,,,,,3.6,1.9,3.1*3D\r\n'
b'$GPRMC,210755.000,A,0322.5577,N,07631.9615,W,0.00,160.74,060821,,,A*7A\r\n'
b'$GPGGA,210756.000,0322.5577,N,07631.9615,W,1,06,1.9,999.4,M,8.9,M,,0000*70\r\n'
b'$GPGSA,A,3,24,29,18,15,32,23,,,,,,,3.6,1.9,3.1*3D\r\n'
b'$GPGSV,3,1,12,24,62,096,42,29,53,225,41,18,37,343,43,15,28,016,44*79\r\n'
b'$GPGSV,3,2,12,32,18,240,25,23,17,327,27,25,17,190,,12,16,157,*78\r\n'
b'$GPGSV,3,3,12,05,15,057,,02,14,134,,11,07,132,,13,04,031,*7B\r\n'
b'$GPRMC,210756.000,A,0322.5577,N,07631.9615,W,0.00,160.74,060821,,,A*79\r\n'
b'$GPGGA,210757.000,0322.5577,N,07631.9615,W,1,06,1.9,999.4,M,8.9,M,,0000*71\r\n'
b'$GPGSA,A,3,24,29,18,15,32,23,,,,,,,3.6,1.9,3.1*3D\r\n'
b'$GPRMC,210757.000,A,0322.5577,N,07631.9615,W,0.00,160.74,060821,,,A*78\r\n'
b'$GPGGA,210758.000,0322.5577,N,07631.9615,W,1,06,1.9,999.4,M,8.9,M,,0000*7E\r\n'
b'$GPGSA,A,3,24,29,18,15,32,23,,,,,,,3.6,1.9,3.1*3D\r\n'
b'$GPRMC,210758.000,A,0322.5577,N,07631.9615,W,0.00,160.74,060821,,,A*77\r\n'
b'$GPGGA,210759.000,0322.5577,N,07631.9615,W,1,06,1.9,999.4,M,8.9,M,,0000*7F\r\n'
b'$GPGSA,A,3,24,29,18,15,32,23,,,,,,,3.6,1.9,3.1*3D\r\n'
b'$GPRMC,210759.000,A,0322.5577,N,07631.9615,W,0.00,160.74,060821,,,A*76\r\n'
b'$GPGGA,210800.000,0322.5577,N,07631.9615,W,1,06,1.9,999.4,M,8.9,M,,0000*7C\r\n'
b'$GPGSA,A,3,24,29,18,15,32,23,,,,,,,3.6,1.9,3.1*3D\r\n'
b'$GPRMC,210800.000,A,0322.5577,N,07631.9615,W,0.00,160.74,060821,,,A*75\r\n'
b'$GPGGA,210801.000,0322.5577,N,07631.9615,W,1,06,1.9,999.4,M,8.9,M,,0000*7D\r\n'
b'$GPGSA,A,3,24,29,18,15,32,23,,,,,,,3.6,1.9,3.1*3D\r\n'
b'$GPGSV,3,1,12,24,62,096,43,29,53,225,41,18,37,343,43,15,28,016,43*7F\r\n'
b'$GPGSV,3,2,12,32,18,240,26,23,17,327,29,25,17,190,,12,16,157,*75\r\n'
b'$GPGSV,3,3,12,05,15,057,,02,14,134,,11,07,132,,13,04,031,*7B\r\n'
b'$GPRMC,210801.000,A,0322.5577,N,07631.9615,W,0.00,160.74,060821,,,A*74\r\n'
b'$GPGGA,210802.000,0322.5577,N,07631.9615,W,1,06,1.9,999.4,M,8.9,M,,0000*7E\r\n'
b'$GPGSA,A,3,24,29,18,15,32,23,,,,,,,3.6,1.9,3.1*3D\r\n'
b'$GPRMC,210802.000,A,0322.5577,N,07631.9615,W,0.00,160.74,060821,,,A*77\r\n'
b'$GPGGA,210803.000,0322.5577,N,07631.9615,W,1,06,1.9,999.4,M,8.9,M,,0000*7F\r\n'
b'$GPGSA,A,3,24,29,18,15,32,23,,,,,,,3.6,1.9,3.1*3D\r\n'
b'$GPRMC,210803.000,A,0322.5577,N,07631.9615,W,0.00,160.74,060821,,,A*76\r\n'
b'$GPGGA,210804.000,0322.5577,N,07631.9615,W,1,06,1.9,999.4,M,8.9,M,,0000*78\r\n'
b'$GPGSA,A,3,24,29,18,15,32,23,,,,,,,3.6,1.9,3.1*3D\r\n'
b'$GPRMC,210804.000,A,0322.5577,N,07631.9615,W,0.00,160.74,060821,,,A*71\r\n'
b'$GPGGA,210805.000,0322.5577,N,07631.9615,W,1,06,1.9,999.4,M,8.9,M,,0000*79\r\n'
b'$GPGSA,A,3,24,29,18,15,32,23,,,,,,,3.6,1.9,3.1*3D\r\n'
b'$GPRMC,210805.000,A,0322.5577,N,07631.9615,W,0.00,160.74,060821,,,A*70\r\n'
b'$GPGGA,210806.000,0322.5577,N,07631.9615,W,1,06,1.9,999.6,M,8.9,M,,0000*78\r\n'
b'$GPGSA,A,3,24,29,18,15,32,23,,,,,,,3.6,1.9,3.1*3D\r\n'
b'$GPGSV,3,1,12,24,62,096,43,29,53,225,41,18,37,343,42,15,28,016,43*7E\r\n'
b'$GPGSV,3,2,12,32,18,240,26,23,17,327,30,25,17,190,,12,16,157,*7D\r\n'
b'$GPGSV,3,3,12,05,15,057,,02,14,134,,11,07,132,,13,04,031,*7B\r\n'
b'$GPRMC,210806.000,A,0322.5577,N,07631.9615,W,0.17,160.74,060821,,,A*75\r\n'
b'$GPGGA,210807.000,0322.5577,N,07631.9615,W,1,06,1.9,999.6,M,8.9,M,,0000*79\r\n'
b'$GPGSA,A,3,24,29,18,15,32,23,,,,,,,3.6,1.9,3.1*3D\r\n'
b'$GPRMC,210807.000,A,0322.5577,N,07631.9615,W,0.01,160.74,060821,,,A*73\r\n'
b'$GPGGA,210808.000,0322.5577,N,07631.9615,W,1,06,1.9,999.6,M,8.9,M,,0000*76\r\n'
b'$GPGSA,A,3,24,29,18,15,32,23,,,,,,,3.6,1.9,3.1*3D\r\n'
b'$GPRMC,210808.000,A,0322.5577,N,07631.9615,W,0.00,160.74,060821,,,A*7D\r\n'
b'$GPGGA,210809.000,0322.5577,N,07631.9615,W,1,06,1.9,999.6,M,8.9,M,,0000*77\r\n'
b'$GPGSA,A,3,24,29,18,15,32,23,,,,,,,3.6,1.9,3.1*3D\r\n'
b'$GPRMC,210809.000,A,0322.5577,N,07631.9615,W,0.00,160.74,060821,,,A*7C\r\n'
b'$GPGGA,210810.000,0322.5577,N,07631.9615,W,1,06,1.9,999.6,M,8.9,M,,0000*7F\r\n'
b'$GPGSA,A,3,24,29,18,15,32,23,,,,,,,3.6,1.9,3.1*3D\r\n'
b'$GPRMC,210810.000,A,0322.5577,N,07631.9615,W,0.00,160.74,060821,,,A*74\r\n'
b'$GPGGA,210811.000,0322.5577,N,07631.9615,W,1,06,1.9,999.6,M,8.9,M,,0000*7E\r\n'
b'$GPGSA,A,3,24,29,18,15,32,23,,,,,,,3.6,1.9,3.1*3D\r\n'
b'$GPGSV,3,1,12,24,62,096,43,29,53,225,40,18,37,343,41,15,28,016,42*7D\r\n'
b'$GPGSV,3,2,12,32,18,240,26,23,17,327,31,25,17,190,,12,16,157,*7C\r\n'
b'$GPGSV,3,3,12,05,15,057,,02,14,134,,11,07,132,,13,04,031,*7B\r\n'
b'$GPRMC,210811.000,A,0322.5577,N,07631.9615,W,0.00,160.74,060821,,,A*75\r\n'
b'$GPGGA,210812.000,0322.5577,N,07631.9615,W,1,06,1.9,999.6,M,8.9,M,,0000*7D\r\n'
b'$GPGSA,A,3,24,29,18,15,32,23,,,,,,,3.6,1.9,3.1*3D\r\n'
b'$GPRMC,210812.000,A,0322.5577,N,07631.9615,W,0.00,160.74,060821,,,A*76\r\n'
b'$GPGGA,210813.000,0322.5577,N,07631.9615,W,1,06,1.9,999.6,M,8.9,M,,0000*7C\r\n'
b'$GPGSA,A,3,24,29,18,15,32,23,,,,,,,3.6,1.9,3.1*3D\r\n'
b'$GPRMC,210813.000,A,0322.5577,N,07631.9615,W,0.00,160.74,060821,,,A*77\r\n'
b'$GPGGA,210814.000,0322.5577,N,07631.9615,W,1,06,1.9,999.6,M,8.9,M,,0000*7B\r\n'
b'$GPGSA,A,3,24,29,18,15,32,23,,,,,,,3.6,1.9,3.1*3D\r\n'
b'$GPRMC,210814.000,A,0322.5577,N,07631.9615,W,0.00,160.74,060821,,,A*70\r\n'
b'$GPGGA,210815.000,0322.5577,N,07631.9615,W,1,06,1.9,999.6,M,8.9,M,,0000*7A\r\n'
b'$GPGSA,A,3,24,29,18,15,32,23,,,,,,,3.6,1.9,3.1*3D\r\n'
b'$GPRMC,210815.000,A,0322.5577,N,07631.9615,W,0.00,160.74,060821,,,A*71\r\n'
b'$GPGGA,210816.000,0322.5577,N,07631.9615,W,1,06,1.9,999.6,M,8.9,M,,0000*79\r\n'
b'$GPGSA,A,3,24,29,18,15,32,23,,,,,,,3.6,1.9,3.1*3D\r\n'
b'$GPGSV,3,1,12,24,62,096,43,29,53,225,40,18,37,343,41,15,28,016,42*7D\r\n'
b'$GPGSV,3,2,12,32,18,240,25,23,17,327,31,12,16,157,24,25,17,190,*79\r\n'
b'$GPGSV,3,3,12,05,15,057,,02,14,134,,11,07,132,,13,04,031,*7B\r\n'
b'$GPRMC,210816.000,A,0322.5577,N,07631.9615,W,0.00,160.74,060821,,,A*72\r\n'
b'$GPGGA,210817.000,0322.5577,N,07631.9615,W,1,06,1.9,999.6,M,8.9,M,,0000*78\r\n'
b'$GPGSA,A,3,24,29,18,15,32,23,,,,,,,3.6,1.9,3.1*3D\r\n'
b'$GPRMC,210817.000,A,0322.5577,N,07631.9615,W,0.00,160.74,060821,,,A*73\r\n'
b'$GPGGA,210818.000,0322.5577,N,07631.9615,W,1,06,1.9,999.6,M,8.9,M,,0000*77\r\n'
b'$GPGSA,A,3,24,29,18,15,32,23,,,,,,,3.6,1.9,3.1*3D\r\n'
b'$GPRMC,210818.000,A,0322.5577,N,07631.9615,W,0.00,160.74,060821,,,A*7C\r\n'
b'$GPGGA,210819.000,0322.5577,N,07631.9615,W,1,06,1.9,999.7,M,8.9,M,,0000*77\r\n'
b'$GPGSA,A,3,24,29,18,15,32,23,,,,,,,3.6,1.9,3.1*3D\r\n'
b'$GPRMC,210819.000,A,0322.5577,N,07631.9615,W,0.00,160.74,060821,,,A*7D\r\n'
b'$GPGGA,210820.000,0322.5577,N,07631.9615,W,1,06,1.9,999.7,M,8.9,M,,0000*7D\r\n'
b'$GPGSA,A,3,24,29,18,15,32,23,,,,,,,3.6,1.9,3.1*3D\r\n'
b'$GPRMC,210820.000,A,0322.5577,N,07631.9615,W,0.00,160.74,060821,,,A*77\r\n'
b'$GPGGA,210821.000,0322.5577,N,07631.9615,W,1,06,1.9,999.7,M,8.9,M,,0000*7C\r\n'
b'$GPGSA,A,3,24,29,18,15,32,23,,,,,,,3.6,1.9,3.1*3D\r\n'
b'$GPGSV,3,1,12,24,62,096,44,29,53,225,40,18,37,343,40,15,28,016,41*78\r\n'
b'$GPGSV,3,2,12,32,18,240,25,23,17,327,31,05,15,057,15,12,16,157,24*77\r\n'
b'$GPGSV,3,3,12,25,17,190,,02,14,134,,11,07,132,,13,04,031,*71\r\n'
b'$GPRMC,210821.000,A,0322.5577,N,07631.9615,W,0.00,160.74,060821,,,A*76\r\n'
b'$GPGGA,210822.000,0322.5577,N,07631.9615,W,1,06,1.9,999.7,M,8.9,M,,0000*7F\r\n'
b'$GPGSA,A,3,24,29,18,15,32,23,,,,,,,3.6,1.9,3.1*3D\r\n'
b'$GPRMC,210822.000,A,0322.5577,N,07631.9615,W,0.00,160.74,060821,,,A*75\r\n'
b'$GPGGA,210823.000,0322.5577,N,07631.9615,W,1,06,1.9,999.7,M,8.9,M,,0000*7E\r\n'
b'$GPGSA,A,3,24,29,18,15,32,23,,,,,,,3.6,1.9,3.1*3D\r\n'
b'$GPRMC,210823.000,A,0322.5577,N,07631.9615,W,0.00,160.74,060821,,,A*74\r\n'
b'$GPGGA,210824.000,0322.5577,N,07631.9615,W,1,06,1.9,999.7,M,8.9,M,,0000*79\r\n'
b'$GPGSA,A,3,24,29,18,15,32,23,,,,,,,3.6,1.9,3.1*3D\r\n'
b'$GPRMC,210824.000,A,0322.5577,N,07631.9615,W,0.00,160.74,060821,,,A*73\r\n'
b'$GPGGA,210825.000,0322.5577,N,07631.9615,W,1,06,1.9,999.7,M,8.9,M,,0000*78\r\n'
b'$GPGSA,A,3,24,29,18,15,32,23,,,,,,,3.6,1.9,3.1*3D\r\n'
b'$GPRMC,210825.000,A,0322.5577,N,07631.9615,W,0.00,160.74,060821,,,A*72\r\n'
b'$GPGGA,210826.000,0322.5577,N,07631.9615,W,1,06,1.9,999.7,M,8.9,M,,0000*7B\r\n'
b'$GPGSA,A,3,24,29,18,15,32,23,,,,,,,3.6,1.9,3.1*3D\r\n'
b'$GPGSV,3,1,12,24,62,096,44,29,53,225,40,18,37,343,39,15,28,016,41*76\r\n'
b'$GPGSV,3,2,12,32,18,240,24,23,17,327,29,05,15,057,15,12,16,157,23*78\r\n'
b'$GPGSV,3,3,12,25,17,190,,02,14,134,,11,07,132,,13,04,031,*71\r\n'
b'$GPRMC,210826.000,A,0322.5577,N,07631.9615,W,0.00,160.74,060821,,,A*71\r\n'
b'$GPGGA,210827.000,0322.5577,N,07631.9615,W,1,06,1.9,999.7,M,8.9,M,,0000*7A\r\n'
b'$GPGSA,A,3,24,29,18,15,32,23,,,,,,,3.6,1.9,3.1*3D\r\n'
